Nome,Endereço,Latitude,Longitude,Categoria
Mercearia E Lanchonete Do Gaucho,R. Emil Wehmuth - Blumenau,-26.9503746,-49.147022,restaurant
Eco Recanto Encano,"R. Lorenz, 7301, Indaial",-26.9380822,-49.1792749,restaurant
GO Tech,"R. Frederico Korte - Velha, Blumenau",-26.9433736,-49.1570111,store
Indaial sistemas construtivos,"R. Antonio Dickmann, 2409, Indaial",-26.9492821,-49.1946423,store
Consultora Mary Kay Blumenau,"R. Cristina, 244 - Velha Central, Blumenau",-26.9427571,-49.156578,store
Viacredi,"R. José Reuter, 1123 - Velha Central, Blumenau",-26.9324605,-49.1390891,bank
Network TOP Supermarket (Super Center),"R. José Reuter, 961 - Velha Central, Blumenau",-26.9329152,-49.1373636,supermarket
Supermercado São Matheus,"R. José Reuter, 2289 - Velha Central, Blumenau",-26.9375577,-49.1473922,supermarket
Mercado Theiss & Giehl,"R. Herman Barthel, 1315 - Velha, Blumenau",-26.9279986,-49.148621,supermarket
Supermercado Preço Bom,"R. José Reuter, 2263 - Velha, Blumenau",-26.9376352,-49.1471672,supermarket
Mercado Vicente,"R. José Reuter, 2450 - Velha Central, Blumenau",-26.9371759,-49.1486162,supermarket
Comercial Zuchi,"R. José Reuter, 3011 - Velha Central, Blumenau",-26.9400662,-49.1524593,supermarket
Mercado Bonifácio,"R. Divinópolis, 588 - Velha Central, Blumenau",-26.9202924,-49.1229919,supermarket
Cooper Omino,"R. dos Caçadores, 2405 - Velha Central, Blumenau",-26.927842,-49.1207635,supermarket
UniBox Atacarejo - Velha,"R. José Reuter, 266 - Velha Central, Blumenau",-26.9336653,-49.1307261,supermarket
Ofertas SC,"R. José Seibt - velha, Blumenau",-26.9398568,-49.1409283,supermarket
Vitória Store,"R. dos Caçadores, 3010 - Velha Central, Blumenau",-26.929977,-49.1260103,store
Lexter Store,"R. Johann Ohf, 3085 - Velha, Blumenau",-26.9312313,-49.1347688,store
Grow Store,"R. Quixabas, 88 - Velha Central, Blumenau",-26.9292849,-49.1257282,store
Glam for you store,"R. Wilhelm Siebert, 50 - Velha, Blumenau",-26.9342516,-49.1457661,store
Avro Store,"R. Helmuth Butzke, 150 - Velha Central, Blumenau",-26.9344727,-49.1361077,store
Xaiane store,"R. dos Pescadores - Velha Central, Blumenau",-26.9316859,-49.145086,store
Dabliu.R Store,"R. dos Caçadores, 2432 - Sala 02 - Velha Central, Blumenau",-26.9279475,-49.1211409,store
Aeros Camiseteria,"R. Emílio Wehmuth, 123 - Velha Central, Blumenau",-26.936012,-49.1396749,store
Netuno aqua store,"R. Georg Bachman, 141 - Velha, Blumenau",-26.9292632,-49.1288111,store
NW conveniência,"R. Anna Muller, 29 - Velha Grande, Blumenau",-26.9504461,-49.1309548,store
Allipe,"R. dos Caçadores, 3144 - Loja 1 - Velha, Blumenau",-26.9301889,-49.1274831,store
Frios in Box Bnu,"R. João Marchiori - Velha Central, Blumenau",-26.9281971,-49.13246239999999,store
Divina Fitness,"R. Gov. Jorge Lacerda, 2515 - Velha Central, Blumenau",-26.9313296,-49.121223,store
Flamboyant Boutique,"R. Gisela Michel - Velha Central, Blumenau",-26.9363777,-49.1360664,store
Bemmequer Lingerie Store,"R. José Reuter, 1400 - Velha, Blumenau",-26.932686,-49.1416449,store
Blubel Magazine Shops,"R. José Reuter, 520 - Velha Central, Blumenau",-26.9333149,-49.1333951,store
Papelaria,"Velha Central, Blumenau",-26.9272112,-49.1206977,store
Boutique da No.,"R. dos Caçadores, 2012 - Velha, Blumenau",-26.9247605,-49.1190714,store
Agro Blumenau,"R. José Reuter, 3112 - Velha Central, Blumenau",-26.9402334,-49.1531208,store
Baby Kids Blumenau,"R. José Reuter, 950 - Velha Central, Blumenau",-26.9322579,-49.1371999,store
Lanchonete Willy,"R. Franz Muller, 61 - Velha Central, Blumenau",-26.9500555,-49.1323411,restaurant
Rafas hamburgueria artesanal,"R. Germano Kratz Neto, nº6 - Velha Grande, Blumenau",-26.9495476,-49.1333799,restaurant
Restaurante e Pesque e Pague Família,"R. Herman Kratz, 2901 - Velha Grande, Blumenau",-26.970569,-49.1262387,restaurant
Mercado Janedu,"R. Maria Pinheiro da Silva, 50 - Velha Grande, Blumenau",-26.9539906,-49.1307846,supermarket
Mercearia Pai E Filho,"R. Herman Kratz - Velha Grande, Blumenau",-26.9637043,-49.1307319,supermarket
Doces Ivete,"R. Germano Kruger, 2-82 - Velha Grande, Blumenau",-26.9504775,-49.133709,store
Infotechdudy,"Unnamed Road - Velha Grande, Blumenau",-26.962282,-49.1307993,store
Delícias da Klau,"R. Gervázio João de Sena, n° 39 - Velha Grande, Blumenau",-26.9497758,-49.1340481,store
Mercado Guedes ll,"R. Herman Kratz - Velha Grande, Blumenau",-26.95951,-49.1314091,store
Confecções Alecrim,"R. João Manoel Cardoso, 50 - Velha, Blumenau",-26.9633036,-49.1305212,store
Mr. Salgados,"R. Rui Barbosa, 1385 - Progresso, Blumenau",-26.9715036,-49.0900347,restaurant
3512/B.GARCIA-U-BLUMENAU,"R. Amazonas - Garcia, Blumenau",-26.9547227,-49.0687481,bank
LW Advogados,"R. Amazonas, 3942 - Garcia, Blumenau",-26.9528064,-49.070925,bank
BANCO DO BRASIL - GARCIA - Agência 3126,"R. Amazonas, 3774 - Garcia, Blumenau",-26.951492,-49.0716546,bank
Supermercado Hostins,"R. Eng. Odebrecht, 583 - Garcia, Blumenau",-26.9391718,-49.062262,supermarket
Mercearia Lurdes,"R. Emílio Tallmann, 596 - Progresso, Blumenau",-26.9588008,-49.0712285,supermarket
Elias Bittencourt,"R. Belo Horizonte, 321 - Glória, Blumenau",-26.966289,-49.0639005,supermarket
Market and Butcher Bruno,"R. da Glória, 1554 - Glória, Blumenau",-26.9648991,-49.0545921,supermarket
Mercado Edson Reis,"R. Otilio Zancanela, 2029 - Valparaíso, Blumenau",-26.9560965,-49.0891988,supermarket
Supermercado Passos Rede Master Vale,"R. Progresso, 1880 - Progresso, Blumenau",-26.9697238,-49.0734558,supermarket
Mercado Beto Hostins,"R. Antônio Zendron, 985 - Valparaíso, Blumenau",-26.9537698,-49.0808371,supermarket
Cooper Garcia,"R. Amazonas, 3000 - Garcia, Blumenau",-26.9446806,-49.0728894,supermarket
Cooper - Branch Glory,"R. da Glória, 344 - Glória, Blumenau",-26.9623503,-49.0657945,supermarket
Supermercados Carol - Loja 11,"R. Amazonas, 4290 - Garcia, Blumenau",-26.9548059,-49.0682131,supermarket
Mini Mercado Decomar,"R. Guilherme Sestrem, 260 - Progresso, Blumenau",-26.9708038,-49.0715689,supermarket
Mercearia do Mano,"R. Belo Horizonte, 464 - Glória, Blumenau",-26.9674644,-49.0644924,supermarket
Cooper Clique e Retire Garcia,"Cooper Garcia - Estacionamento 2 - R. Sd. Moacir Pinheiro, 244 - Garcia, Blumenau",-26.9447658,-49.0744269,supermarket
Mercado Krueger,"R. da Glória, 2496 - Glória, Blumenau",-26.9716852,-49.0512521,supermarket
Padaria Pastel e Mercado Klock,"R. Espírito Santo, 72 - sala 01 - Valparaíso, Blumenau",-26.9533748,-49.0730867,supermarket
RBS STORE,"R. Marabá - Progresso, Blumenau",-26.9604664,-49.0724349,store
Padreco Store,"R. Progresso, 2068 - Progresso, Blumenau",-26.9704465,-49.0751933,store
Mackbull store,"R. Amazonas, 1851 - Garcia, Blumenau",-26.9371665,-49.0646452,store
HR Store,"R. Amazonas, 3810 - Garcia, Blumenau",-26.9517493,-49.0713687,store
BELLA JANELA STORE,"R. Amazonas, 1852 - Garcia, Blumenau",-26.9368833,-49.0649214,store
Cheguei Store,"Progresso, Blumenau",-26.9350788,-49.0620525,store
Qe. Store,"R. Campos Novos, 300 - Garcia, Blumenau",-26.9460052,-49.0754162,store
Ameliê Store,"R. Amazonas, 2030 - Garcia, Blumenau",-26.9379616,-49.0662245,store
Rookgaard Store,"R. Belo Horizonte - Glória, Blumenau",-26.9704115,-49.0628787,store
Vikings Beer,"R. Amazonas, 2325 - Garcia, Blumenau",-26.9396797,-49.0683297,store
Colchões Ortobom,"R. Amazonas, 3000 - Loja 05 - Garcia, Blumenau",-26.9447124,-49.0717941,store
MG STORE MULTIMARCAS,"R. Amazonas, 2281 - Garcia, Blumenau",-26.939646,-49.0679559,store
Pet Shop Sete Bichos Depósito,"R. Sd. Moacir Pinheiro, 55 - Garcia, Blumenau",-26.9451294,-49.0727342,store
Adry Weiss Store,"R. Amazonas, 3385 - Garcia, Blumenau",-26.9481833,-49.0720289,store
Adoleta Brinquedos,"R. Amazonas, 3000 - Garcia, Blumenau",-26.9447349,-49.0723169,store
MB Papelaria,"R. Campos Novos, 269 - Garcia, Blumenau",-26.9463128,-49.0751241,store
PC Express Celulares e Informática filial Garcia,"R. Amazonas, 4160 - Garcia, Blumenau",-26.954255,-49.0693847,store
MAHAI SHOP,"R. Amazonas, 2880 - Sala 01 - Garcia, Blumenau",-26.9435953,-49.0716536,store
Ortobom Cooper Garcia,"R. Amazonas, 3000 - Loja 05 - Garcia, Blumenau",-26.9446164,-49.0729513,store
Pet Shop Sete Bichos,"R. Amazonas, 3000 - COOPER - Garcia, Blumenau",-26.9446073,-49.0730049,store
Hospital Santa Catarina de Blumenau,"R. Amazonas, 301 - Garcia, Blumenau",-26.9267303,-49.0558767,hospital
Blumenal,"R. Cel. Vidal Ramos, 185 - Jardim Blumenau, Blumenau",-26.9259858,-49.0627565,hospital
Arrena Multi Uso Gaspar,"Garcia, Blumenau",-26.9407818,-49.066906,hospital
Cirurgia Geral e Digestiva,"Praca Mal Mascarenhas De Moraes, 217 - Ribeirão Fresco, Blumenau",-26.9268329,-49.0555909,hospital
SAS - Serv. de Avaliação em Saúde Mental,"R. Jean Romain Bonemasou, 70 - Jardim Blumenau, Blumenau",-26.9285573,-49.0632998,hospital
Qlinica,"R. Floriano Peixoto - Bom Retiro, Blumenau",-26.925113,-49.0652469,hospital
Ortopedia,"R. Berta Odebrecht, 66 - Garcia, Blumenau",-26.9299297,-49.0549356,hospital
Radioterapia,"Praca Mal Mascarenhas De Moraes, 217 - Ribeirão Fresco, Blumenau",-26.9268329,-49.0555909,hospital
Hospital Santa Catarina,"Garcia, Blumenau",-26.926048,-49.0560148,hospital
Bloco E,"R. Amazonas, 2425 - Garcia, Blumenau",-26.9402761,-49.0698347,hospital
Centro Clínico Santa Catarina,"R. Armando Odebrecht, 70 - Garcia, Blumenau",-26.9280138,-49.0560535,hospital
Instituto de Ensino e Pesquisa,"R. Amazonas, 301 - Garcia, Blumenau",-26.926624,-49.0558078,hospital
Ecology Museum Fritz Müller,"R. Itajaí, 2195 - Vorstadt, Blumenau",-26.9100861,-49.0441748,cool things to do
Habits and Customs Museum,"R. XV de Novembro, 25 - Centro, Blumenau",-26.9213095,-49.0578386,cool things to do
Beer Museum Blumenau,"R. XV de Novembro, 160 - Centro, Blumenau",-26.9216252,-49.0587822,cool things to do
Colonial Family Museum,"Alameda Duque de Caxias, 78 - Centro, Blumenau",-26.9223779,-49.0576033,cool things to do
Praça Hercílio Luz,"R. XV de Novembro, 160 - Centro, Blumenau",-26.9217731,-49.0588005,cool things to do
Letreiro Ich Liebe Blumenau,"Centro, Blumenau",-26.9141409,-49.0687522,tourist attractions
Casa do Engenheiro da Ferrovia E.F.S.C.,"R. Aristides Melo, 57 - Centro, Blumenau",-26.9213171,-49.0568007,tourist attractions
Ponte Ferroviária E.F.S.C. ruínas.,"R. Itajaí, 1492-1564 - Vorstadt, Blumenau",-26.9124431,-49.0501322,tourist attractions
"Casa Histórica de Blumenau, Rodovia Jorge Lacerda, 574, Blumenau - SC","Rod. Jorge Lacerda, 574 - Vorstadt, Blumenau",-26.9161508,-49.057675,tourist attractions
Parada Capim Volta E.F.S.C.,"R. Itajaí, 2007 - Vorstadt, Blumenau",-26.908975,-49.042437,tourist attractions
Ferrovia Desativada E.F.S.C.,"R. Itajaí, 1850 - Vorstadt, Blumenau",-26.9118571,-49.0472747,tourist attractions
"Túnel Rua Vitório Alcântara, Blumentau - SC","R. Vitório Alcântara - Ponta Aguda, Blumenau",-26.913408,-49.0655148,tourist attractions
"Monumento Olavo Bilac, Av. Presidente Castelo Branco, 1185, Blumenau - SC","Av. Pres. Castelo Branco, 1185 - Centro, Blumenau",-26.9150253,-49.068385,tourist attractions
Túnel ferroviário E.F.S.C. desativado,"R. Vitório Alcântara, 93 - Ponta Aguda, Blumenau",-26.9136356,-49.0645384,tourist attractions
"Casarão Histórico Jansen Schmitd, Rua Itajaí, 46, Blumenau - SC","R. Itajaí, 46 - Vorstadt, Blumenau",-26.9208681,-49.0581073,tourist attractions
"Painel Artístico Antônio Rozicki, Ponte dos Arcos, Blumenau - SC","Rod. Jorge Lacerda, 815 - Vorstadt, Blumenau",-26.9139017,-49.0570472,tourist attractions
"Antigo Casarão da Família Sachtleben, Blumenau, Santa Catarina","R. XV de Novembro, 41 - Centro, Blumenau",-26.9214494,-49.0579342,tourist attractions
Acesso ferroviário ao pontilhão dos Arcos E.F.S.C.,"R. República Argentina, 778-832 - Ponta Aguda, Blumenau",-26.9129529,-49.0588048,tourist attractions
Corte na pedra ferrovia E.F.S.C.,"R. Vitório Alcântara, 160-174 - Ponta Aguda, Blumenau",-26.9125012,-49.0598249,tourist attractions
Cachoeira de Concreto,"R. Itajaí, 264 - Vorstadt, Blumenau",-26.9186856,-49.0583174,tourist attractions
Cemitério dos Gatos Edith Gaerthner,"Centro, Blumenau",-26.9224923,-49.0581328,tourist attractions
Fonte Luminosa,"Garcia, Blumenau",-26.9266085,-49.0565429,tourist attractions
Praça Das Palmeiras,"Alameda Duque de Caxias, 145 - Centro, Blumenau",-26.9223324,-49.0567349,tourist attractions
Vapor Blumenau,"Ponta Aguda, Blumenau",-26.9198618,-49.0608818,tourist attractions
Rua das Palmeiras,"Alameda Duque de Caxias - Centro, Blumenau",-26.9225565,-49.057009,tourist attractions
Pastelaria Roselito,"R. Antônio Zendron, 1963-2029 - Valparaíso, Blumenau",-26.9558321,-49.08832,restaurant
Espaço 386,"R. Goiás, 386 - Garcia, Blumenau",-26.9408619,-49.0657554,hotel
Hotel de Trânsito do 23º Batalhão de Infantaria Blumenau - SC,"R. Amazonas, 3461 - Garcia, Blumenau",-26.9490088,-49.071526,hotel
Pousada & Hostel Vento Minuano,"R. Lídia Zwicker, 271 - Garcia, Blumenau",-26.9436626,-49.0687904,hotel
Banco Itaú - Agência 6392,"R. Amazonas, 3201 - Garcia, Blumenau",-26.9464967,-49.0719921,bank
Banco Bradesco - Agência 3512,"R. Amazonas, 3244 - Garcia, Blumenau",-26.9466818,-49.0725316,bank
Banco24Horas,"R. 7 de Setembro, 100 - Garcia, Blumenau",-26.9258596,-49.0570607,bank
Banco Santander - Agência 1835 Cia. Hering,"R. Hermann Hering, 1790 - Bom Retiro, Blumenau",-26.9260941,-49.0844635,bank
Banco Santander - Agência 2169 Coteminas Blumenau,"R. Progresso, 150 - Progresso, Blumenau",-26.9614236,-49.0669633,bank
Banco Santander - Agência 1537 Blumenau,"R. Amazonas, 2910 - Garcia, Blumenau",-26.9439121,-49.0721028,bank
BANCO DO BRASIL - ESTILO BLUMENAU - Agência 4771,"Alameda Rio Branco, 810 - Centro, Blumenau",-26.9294325,-49.0631976,bank
Caixa Econômica Federal,"R. Amazonas, 2901 - Garcia, Blumenau",-26.9438278,-49.0713934,bank
Bradesco Dia&Noite,"R. Nereu Ramos, 300 - Jardim Blumenau, Blumenau",-26.9247578,-49.0627833,bank
Saque e Pague,"R. Armando Odebrecht, 70 - Garcia, Blumenau",-26.9279261,-49.0560845,bank
Agibank - Loja Promil Blumenau Garcia,"R. Amazonas, 2960 CJ Tropical Residence, LJ 03 e 04 - Garcia, Blumenau",-26.9441941,-49.07208019999999,bank
Bistek Supermercados,"R. Amazonas, 466 - Garcia, Blumenau",-26.9270155,-49.0577238,supermarket
Casa Express,"R. Cel. Vidal Ramos, 227 - Jardim Blumenau, Blumenau",-26.9259632,-49.0632173,supermarket
Pok Burguer,"Rua: Augusto Butzke Junior, Blumenau",-26.9556173,-49.0859216,restaurant
Pousada do Galdino,"R. Alterosa, 234 - Garcia, Blumenau",-26.9533028,-49.06527699999999,hotel
Quioski Lanches e Pizzas,"R. Rui Barbosa, 645 - Progresso, Blumenau",-26.9724555,-49.0827321,restaurant
Dog e Lanche Da Familia,"R. Emílio Tallmann, 1587 - Progresso, Blumenau",-26.9634007,-49.0798772,restaurant
Restaurante Castelinho,"R. Rui Barbosa, 89 - Progresso, Blumenau",-26.9738278,-49.0776218,restaurant
Empório do Pastel,"R. Progresso, 2178 - Progresso, Blumenau",-26.9707301,-49.075899,restaurant
FT invest Soluções Financeiras,"R. Piratuba, 49 - Garcia, Blumenau",-26.938277,-49.064139,bank
Moinho Market Express,"R. República Argentina, 111 - Ponta Aguda, Blumenau",-26.9169867,-49.0640929,supermarket
Mercearia Medeiros Luz,"R. Pedro Krauss Sênior, 815 - Vorstadt, Blumenau",-26.9186328,-49.04766129999999,supermarket
Armazém Natural,"R. XV de Novembro, 1351 - Centro, Blumenau",-26.9170517,-49.0681155,supermarket
Mercado Pedro Kraus,"Vorstadt, Blumenau",-26.9178089,-49.0492538,supermarket
supermercado,"Hotel Mansiones - R. Padre Jacobs, 45 - Centro, Blumenau",-26.9202504,-49.0658579,supermarket
Bia Dixon Store,"Vorstadt, Blumenau",-26.9125104,-49.0507795,store
Conveniência Am/Pm,"R. 7 de Setembro, 2093 - Centro, Blumenau",-26.9148593,-49.0743703,store
Allan Store,"R. XV de Novembro, 759 - Centro, Blumenau",-26.9205428,-49.0675529,store
Unknow Store,"R. Camboriú, 121 - AP 701 - Victor Konder, Blumenau",-26.910507,-49.07374,store
Alameda Pet Store,"R. Frederico Guilherme Busch, 87 - Sala 03 - Jardim Blumenau, Blumenau",-26.9283621,-49.06321639999999,store
BA STORE,"R. João Pessoa, 787 - Velha, Blumenau",-26.9157963,-49.0822659,store
Loja Antônia Store,"R. Pastor Stutzer, nº77 - Jardim Blumenau, Blumenau",-26.9299856,-49.06382319999999,store
Amisis Store,"R. Floriano Peixoto, 55 - Sala 301 - Centro, Blumenau",-26.9220681,-49.0633038,store
adidas Store BLUMENAU,"R. 7 de Setembro, 1213 - Centro, Blumenau",-26.920565,-49.069847,store
Lookday Store,"R. Curt Hering, 40 - sala C - Centro, Blumenau",-26.9218045,-49.0638239,store
Wonderful Store,"R. Alm. Tamandaré, 141 - sala 3 - Vila Nova, Blumenau",-26.9110847,-49.0825635,store
Lua Clara | Store - Centro Blumenau,"R. XV de Novembro, 1100 - Centro, Blumenau",-26.9182651,-49.0668114,store
FB Store,"Loja Rosa chá closet - R. 7 de Setembro, 990 - Centro, Blumenau",-26.9211497,-49.0661772,store
Vivia Store,"R. Cel. Vidal Ramos, 307 - Jardim Blumenau, Blumenau",-26.9257418,-49.063888,store
Lua Clara | Store - Blumenau B.Fonte/Garcia,"R. Amazonas, 506 - Garcia, Blumenau",-26.9274642,-49.0576745,store
store madein,"R. São Paulo, 203 - Victor Konder, Blumenau",-26.9138393,-49.0710867,store
Hospital Santa Isabel,"R. Floriano Peixoto, 300 - Centro, Blumenau",-26.9239033,-49.065172,hospital
Hospital Santo Antônio,"R. Itajaí, 545 - Vorstadt, Blumenau",-26.9165159,-49.05825919999999,hospital
Dr. Eduardo Gonçalves | Médico do Esporte Especialista em Emagrecimento | Performance Esportiva e Hipertrofia,"R. Floriano Peixoto, 300 - Centro, Blumenau",-26.9241039,-49.06476439999999,hospital
Hospital Santa Isabel -Anatomia Patológica,"R. Floriano Peixoto, 300 - Centro, Blumenau",-26.923743,-49.0654824,hospital
ONCO HSC,"Hospital Santa Catarina de Blumenau - R. Amazonas, 301 - 4º Andar - Garcia, Blumenau",-26.926624,-49.0558078,hospital
la casa de pastel,"R. Emílio Tallmann - Progresso, Blumenau",-26.9606041,-49.0761615,restaurant
Rock Burguer's,"R. Nicolau Werner, 366 - Valparaíso, Blumenau",-26.9575179,-49.0747055,restaurant
Rei dos salgadinhos,"R. Ernesto Steinbach - Valparaíso, Blumenau",-26.9535093,-49.0752713,restaurant
Casa da Fumaça Assadão,"R. Antônio Zendron, 274 - Valparaíso, Blumenau",-26.9521039,-49.0743127,restaurant
Dogão do Louze,"R. Ernesto Steinbach, 43 - Valparaíso, Blumenau",-26.9529255,-49.0754897,restaurant
Restaurante Cantinho Brasileiro,"R. Amazonas, 3361 - Garcia, Blumenau",-26.9478187,-49.0720913,restaurant
Chen’s Comida Oriental,"R. Amazonas, 3000 - Garcia, Blumenau",-26.9448664,-49.07296940000001,restaurant
SUBWAY Garcia,"Praça de Alimentação Cooper - R. Amazonas, 3000 - Garcia, Blumenau",-26.9448641,-49.07300859999999,restaurant
Coffee Burger,"R. Srg. Carlos Argemiro de Carvalho, 101 - Garcia, Blumenau",-26.9467088,-49.0733683,restaurant
"Augustu's Crepes, Panquecas , Caldo de Cana e Evento","R. Amazonas, 3000 - Garcia, Blumenau",-26.9446164,-49.0729513,restaurant
Bob's Shakes,"R. Amazonas, 3000 - Garcia, Blumenau",-26.9448616,-49.0730499,restaurant
Montevideo Burguer,"R. Amazonas, 3403 - Garcia, Blumenau",-26.9481833,-49.0720289,restaurant
Japa Lanches Blumenau,"R. Daniel Vitório Schramm, 2-66 - Progresso, Blumenau",-26.9529904,-49.0746816,restaurant
Lanchonete Tempero Brasileiro,"R. Amazonas, 3361 - Garcia, Blumenau",-26.9478187,-49.0720913,restaurant
Burger Lanches Uruguay.,"Garcia, Blumenau",-26.9480737,-49.072035,restaurant
Quality Hotel Blumenau,"R. Hermann Huscher, 670 - Vila Formosa, Blumenau",-26.9352574,-49.06753310000001,hotel
Casa Amarela Blumenau Hospedagem Alternativa,"R. Frederico Guilherme Busch, 255 - Jardim Blumenau, Blumenau",-26.9279689,-49.0649003,hotel
Bankboston Banco Múltiplo Sa,"R. 7 de Setembro, 954 - Centro, Blumenau",-26.9216196,-49.06617869999999,bank
Escritório Bradesco Private Bank,"Salas 202/203, R. XV de Novembro, 920 - Boa Vista, Blumenau",-26.9195845,-49.0654116,bank
Valley Bank,"R. Paulo Zimmermann, 147 - Centro, Blumenau",-26.9155957,-49.0713618,bank
Itaú - Ag. 0132 - Blumenau SC,"R. XV de Novembro, 728 - Centro, Blumenau",-26.9206414,-49.0639225,bank
Banco Itaú Personnalité - Agência 7008,"R. 7 de Setembro, 955 - Ribeirão Fresco, Blumenau",-26.9217872,-49.066348,bank
Bradesco,"R. 7 de Setembro, 1213 - Centro, Blumenau",-26.9206425,-49.0699063,bank
Sicoob,"R. XV de Novembro, 117 - Centro, Blumenau",-26.9219806,-49.0584127,bank
Banco Bradesco - Agência 333 BLUMENAU-CTO,"R. XV de Novembro, 849 - Centro, Blumenau",-26.9205209,-49.0649965,bank
Banrisul,"R. XV de Novembro, 666 - Centro, Blumenau",-26.9208674,-49.0633597,bank
"Gerência Regional de Apoio ao Comércio Exterior, Blumenau","R. XV de Novembro, 1305 - Centro, Blumenau",-26.9221018,-49.0613645,bank
Banco Bradesco - Agência 1109,"R. XV de Novembro, 319 - Centro, Blumenau",-26.9225347,-49.0602271,bank
Banco Santander - Agência 3059 - Blumenau,"R. XV de Novembro, 714 - Centro, Blumenau",-26.9207658,-49.0638436,bank
Banco Daycoval Blumenau,"R. Floriano Peixoto, 222 - Salas 601 e 602 - Centro, Blumenau",-26.9232407,-49.06442819999999,bank
Agibank,"R. XV de Novembro, 1360 - Centro, Blumenau",-26.9163337,-49.0680798,bank
Banco Itaú - Agência 0132,"R. XV de Novembro, 1231 - Centro, Blumenau",-26.9179564,-49.0677444,bank
Banco Santander - Agência Select 1822 Blumenau,"R. XV de Novembro, 320 - Centro, Blumenau",-26.922285,-49.0603625,bank
Supermercado M C,"R. Pedro Krauss Sênior, 45 - Vorstadt, Blumenau",-26.912836,-49.050285,supermarket
Vargas Supermercado,"R. Luiz Eleodoro da Silva, 675 - Ponta Aguda, Blumenau",-26.9022656,-49.0484292,supermarket
Giassi Supermercados - Blumenau,"R. São Paulo, 1277 - Victor Konder, Blumenau",-26.9063049,-49.076786,supermarket
Groceries Casa Bahia,"R. São Paulo, 443 - Victor Konder, Blumenau",-26.9117847,-49.0717581,supermarket
Berinjela Grill Garcia - Cooper,"R. Amazonas - Garcia, Blumenau",-26.9444457,-49.0723926,restaurant
Restaurante Cantinho do Sabor,"Estacionamento Paróquia Santo Antônio - R. Amazonas, 3725 - Garcia, Blumenau",-26.9508861,-49.071318,restaurant
Madrugão Lanches II,"R. Amazonas, 3281 - Garcia, Blumenau",-26.9471071,-49.0721271,restaurant
Açaits Garcia,"R. Amazonas, 3101 - Garcia, Blumenau",-26.9454821,-49.0720489,restaurant
Reino da Gula Xis Gaúcho,"R. Amazonas, 3660 - Garcia, Blumenau",-26.9506079,-49.0721028,restaurant
Restaurante Espetinho de Ouro,"R. Amazonas, 2597 - Garcia, Blumenau",-26.9413607,-49.0701705,restaurant
Assados Garcia,"R. Amazonas, 4050 - Garcia, Blumenau",-26.953535,-49.070144,restaurant
Churrascaria Tiefensee,"R. Amazonas, 2322 - Garcia, Blumenau",-26.9395025,-49.0687522,restaurant
Usina Espetaria,"Rua: Amazonas, 3000 - Sala 3 - Garcia, Blumenau",-26.9546747,-49.06886859999999,restaurant
Alladeen Arabian Food,"R. Urussanga, 335 - Garcia, Blumenau",-26.9453068,-49.0687351,restaurant
Restaurante e Lanchonete Trevo,"Rua da Glória, 116 - Glória, Blumenau",-26.961202,-49.067287,restaurant
Restaurante Sabor Caseiro,"R. Amazonas, 2119 - Garcia, Blumenau",-26.9386957,-49.0666472,restaurant
Estação Culinária de Sabores,"R. da Glória, 130 - Progresso, Blumenau",-26.9613162,-49.06722389999999,restaurant
Ogro burger,"R. Hélio Peixer, 09 - Garcia, Blumenau",-26.9714444,-49.0692385,restaurant
Hotel Oásis Chartouni,"R. Max Wehmuth, 61 - Centro, Blumenau",-26.9274992,-49.0564983,hotel
Restaurante Amigos DO Dog,"R. da Glória, 410 - Glória, Blumenau",-26.9629287,-49.0650476,restaurant
Pastelaria e Lanchonete Thomé,"R. da Glória, 591 - Glória, Blumenau",-26.9632921,-49.0634178,restaurant
Baitacao,"R. Francisco Vahldieck - Fortaleza Alta, Blumenau",-26.9478783,-49.0610478,restaurant
Maya Hot Dog,"R. da Glória - Glória, Blumenau",-26.9638705,-49.0587005,restaurant
Assados Glória Blumenau,"R. da Glória, 532 - Glória, Blumenau",-26.9632337,-49.0639484,restaurant
Sakura Sushi Blumenau,"R. Amazonas, 3000 - Garcia, Blumenau",-26.9546747,-49.06886859999999,restaurant
BOT 1 BURGUER,"R. Amazonas, 4424 - Garcia, Blumenau",-26.9551974,-49.0670915,restaurant
Mini Kalzone - Blumenau,"R. Amazonas, n° 2515 - Sala 1 - Garcia, Blumenau",-26.9407643,-49.0699193,restaurant
Hotel Hermann,"R. Floriano Peixoto, 213 - Centro, Blumenau",-26.9233021,-49.0639984,hotel
Hotel Glória Blumenau,"R. 7 de Setembro, 954 - Centro, Blumenau",-26.9215135,-49.0660065,hotel
Hotel Slaviero Blumenau,"R. 7 de Setembro, 640 - Centro, Blumenau",-26.9229905,-49.0630166,hotel
Plaza Blumenau Hotel,"R. 7 de Setembro, 818 - Centro, Blumenau",-26.922043,-49.0648156,hotel
ibis Blumenau,"R. Paul Hering, 67 - Centro, Blumenau",-26.9209551,-49.0649423,hotel
Rex Hotel,"R. 7 de Setembro, 644 - Centro, Blumenau",-26.922335,-49.0635501,hotel
Accor,"R. Curt Hering, 80 - Centro, Blumenau",-26.9216319,-49.06412539999999,hotel
KLN Bar e eventos,"R. José Reuter, 2592 - Velha Central, Blumenau",-26.93738,-49.1501014,restaurant
Food truck do deco,"R. José Reuter, n°2091 - Velha, Blumenau",-26.9376972,-49.1452406,restaurant
Rock'n Truck,"R. Hermann Huscher, 1191 - Vila Formosa, Blumenau",-26.9384745,-49.0708286,restaurant
Parada Árabe,"R. Amazonas, 2325 - Garcia, Blumenau",-26.93966,-49.068328,restaurant
CHEFF DO DOG,"R. Amazonas, 2107 - Garcia, Blumenau",-26.9386294,-49.0665673,restaurant
Hotel Himmelblau,"R. 7 de Setembro, 1415 - Centro, Blumenau",-26.9187036,-49.0699666,hotel
Hotel Europa,"R. Padre Jacobs, 45 - Centro, Blumenau",-26.9201816,-49.0657004,hotel
Pousada by Rieger,"R. Guilherme Butzke Sênior, 53 - Velha, Blumenau",-26.9185985,-49.08636689999999,hotel
Villa do Vale Boutique Hotel,"R. Petrópolis, 342 - Centro, Blumenau",-26.9183883,-49.075899,hotel
Jacó's Bar e Lanchonete,"R. Lucie Herkenhoff, 44 - Velha Central, Blumenau",-26.9341005,-49.131294,restaurant
Caixa Eletrônico Viacredi,"R. Itororó, 95 - Velha Central, Blumenau",-26.9279539,-49.11991829999999,bank
Mercado Locatelli,"Rua Frei Estanislau Schaette, 1325 - Água Verde, Blumenau",-26.9106484,-49.1053348,supermarket
Supermercado Schneider,"Rua Frei Estanislau Schaette, 887 - Água Verde, Blumenau",-26.9123143,-49.1010261,supermarket
Rede TOP - Velha,"R. Gen. Osório, 1490 - Velha, Blumenau",-26.9139609,-49.1102056,supermarket
Cooper Água Verde Blumenau,"R. Gen. Osório, 2070 - Água Verde, Blumenau",-26.9106297,-49.1137226,supermarket
Supermercados e Açougue Capri,"R. Guilherme Poerner, 1144 - Passo Manso, Blumenau",-26.9087041,-49.1425467,supermarket
Peka Supermercados,"R. Guilherme Poerner, 736 - Passo Manso, Blumenau",-26.9087372,-49.1386823,supermarket
2i2j Frutas e Verduras,"Rua Frei Estanislau Schaette, 770 - Água Verde, Blumenau",-26.9120904,-49.1000476,supermarket
Evelin's shop,"R. João Pessoa, ap 601 - Velha, Blumenau",-26.9219824,-49.0983354,store
Diva Store Cosméticos,"R. João Gomes, 186 - Vila Nova, Blumenau",-26.9000992,-49.0938457,store
Blumercado,"R. Gov. Jorge Lacerda, 1170 - Velha, Blumenau",-26.9257599,-49.111192,store
Santi Store,"Rua Frei Estanislau Schaette, 537 - Água Verde, Blumenau",-26.9122335,-49.09778009999999,store
Poow Store,"R. Reg. Feijó - Itoupava Seca, Blumenau",-26.8976296,-49.0885211,store
Sense Store - Moda Feminina,"R. Benjamin Constant, 2799 - Vila Nova, Blumenau",-26.9059191,-49.0920143,store
Box Store - Loja Online,"R. Visc. de Ouro Preto, 195 - Vila Nova, Blumenau",-26.9060474,-49.0896255,store
Carmel Clothing,"R. Alwin Beckmann, 33 - Água Verde, Blumenau",-26.9113949,-49.1168182,store
"Urban Man Store - Loja Moda Masculina | Tommy Hilfiger, Calvin Klein , Lacoste, Armani, Aeropostale, New Era, Hollister.","R. Humberto de Campos, 950 - Velha, Blumenau",-26.9156799,-49.0886855,store
Vivi Store,"R. Maria Müller Gieseler, 111 - Velha, Blumenau",-26.9204156,-49.1157829,store
Cinema store,"R. Eliana Schumann, 516 - Água Verde, Blumenau",-26.9134899,-49.099346,store
Manto Store,"R. Alberto Stein, 416 - Velha, Blumenau",-26.9134278,-49.0854747,store
Shell Select,"R. Alm. Tamandaré, 888 - Vila Nova, Blumenau",-26.9112072,-49.0897447,store
KC Store,"R. Benjamin Constant, 2042 - Escola Agrícola, Blumenau",-26.9045059,-49.09827139999999,store
JA Store,"R. Eugênio Vick - Escola Agrícola, Blumenau",-26.8937775,-49.1074054,store
Conceitto store,"Rua Frei Estanislau Schaette, 2176 - Água Verde, Blumenau",-26.9122527,-49.11216959999999,store
Camélia Store,"Rua Luiz Buzzi, 147 - Velha, Blumenau",-26.9253841,-49.112796,store
Pizzaria Todo Dia,"Velha Central, Blumenau",-26.9345237,-49.128998,restaurant
S.A Dogs e Lanches,"R. Antônio Zendron, 110 - Valparaíso, Blumenau",-26.9512996,-49.07306879999999,restaurant
Barbaros Burger,"R. Hermann Huscher, 1119 - Vila Formosa, Blumenau",-26.9378545,-49.0700548,restaurant
Papa's Dog,"Anexo Nacional Gás - R. Amazonas, 1958 - Garcia, Blumenau",-26.9375701,-49.0656465,restaurant
QUEEN SUSHI BLUMENAU,"R. Amazonas, 2030 - Sala 01 - Garcia, Blumenau",-26.9379992,-49.0662629,restaurant
X-10 Lanches,"R. José Reuter, 1529 - Velha Central, Blumenau",-26.933305,-49.1427543,restaurant
Neide Lanches,"Velha Central, Blumenau",-26.9328162,-49.1415602,restaurant
Ivo Restaurante,"R. José Reuter, 1123 - Velha, Blumenau",-26.9324605,-49.1390891,restaurant
Bar e Lanchonete Dalpiaz,"R. José Reuter, 1001 - Velha Central, Blumenau",-26.9323308,-49.1378797,restaurant
Mercearia Du Carlitos,"R. Alcida da Silva Teles, 300 - Velha Central, Blumenau",-26.9349283,-49.1398482,restaurant
Assadão Velha,"R. José Reuter, 779 - Velha, Blumenau",-26.932833,-49.13574149999999,restaurant
Espetinho C Tá Doido,"R. José Reuter, 914 - Velha Central, Blumenau",-26.9323368,-49.1369244,restaurant
Lanchonete e Pastelaria CIA Do Lanche,"R. José Reuter, 779 - Velha Central, Blumenau",-26.9328537,-49.1357471,restaurant
Sabores da Nani,"R. José Reuter, 411 - Velha Central, Blumenau",-26.9336381,-49.1320604,restaurant
Rotisseria e Hamburgueria Raiter,"R. José Reuter, 502 - Velha Central, Blumenau",-26.9333062,-49.1331419,restaurant
Lanchonete Central,"R. José Reuter, 411 - Velha Central, Blumenau",-26.9336381,-49.1320604,restaurant
Dog Da Tânia,"R. José Reuter, 460 - Velha Central, Blumenau",-26.9334072,-49.1326444,restaurant
Tita's Restaurante,"R. dos Caçadores, 3680 - Velha Central, Blumenau",-26.9328217,-49.1312655,restaurant
Grun Fresh Food,"R. dos Caçadores, 3680 - Velha, Blumenau",-26.9328217,-49.1312655,restaurant
304 Dogueria Artesanal,"R. José Reuter, 304 - Velha Central, Blumenau",-26.9336231,-49.1311228,restaurant
Hamburgueria X-Pires,"R. Harry Brehmer, 38 - Velha Central, Blumenau",-26.9335149,-49.1280265,restaurant
Sabor da Baiana,"R. Rosa Bielau, 110 - Velha Central, Blumenau",-26.9321859,-49.1208403,restaurant
Rustico Burguer Food Truck,"R. Helmut Birr, n 164 - Velha, Blumenau",-26.9329076,-49.1037179,restaurant
Pizzaria Via Night,"R. Gov. Jorge Lacerda, 3073 - Velha Central, Blumenau",-26.9327329,-49.1263873,restaurant
BURGERBRAVO - GARCIA,"R. Amazonas, 1400 - Sala 1 - Garcia, Blumenau",-26.934387,-49.061258,restaurant
La Bella,"R. José Reuter, 800 - Velha Central, Blumenau",-26.9324552,-49.1360188,restaurant
Restaurante Água na Boca,"R. dos Caçadores, 3368 - Velha Central, Blumenau",-26.9308456,-49.12952749999999,restaurant
Restaurante KLA,"R. dos Caçadores, 3368 - Velha, Blumenau",-26.930894,-49.1294485,restaurant
Lanchonete Casa Velha,"R. dos Caçadores, 3306 - Velha Central, Blumenau",-26.9305208,-49.1288657,restaurant
Sicoob MaxiCrédito - Agência Bairro Da Velha,"Rua General Osório, 1563 Edifício Torre Del Grecco, Loja 02 - Velha, Blumenau",-26.9140853,-49.1106884,bank
Mini Mercado Padilha,"R. Nicolau Reiter, 99 - Escola Agrícola, Blumenau",-26.9041643,-49.1049137,supermarket
Supermercado Capri,"R. Gen. Osório, 3630 - Água Verde, Blumenau",-26.9074214,-49.1286444,supermarket
Cooper Vila Nova Blumenau,"R. Benjamin Constant, 2597 - Vila Nova, Blumenau",-26.9043017,-49.0931854,supermarket
Rede TOP - Escola Agrícola,"R. Benjamin Constant, 939 - Escola Agrícola, Blumenau",-26.894966,-49.098558,supermarket
Comercial Reinaldo Silva,"R. Benjamin Constant, 1961 - Asilo, Blumenau",-26.9037647,-49.0979075,supermarket
Mercado Soares,"R. Bahia, 5755 - Salto Weissbach, Blumenau",-26.8941942,-49.1306149,supermarket
Mercearia Alves,"R. Maria Balbina Zimerman, 326 - Asilo, Blumenau",-26.8945843,-49.1087502,supermarket
Cooper Clique e Retire Vila Nova,"R. Expedicionário Joaquim Boos, 26 - Vila Nova, Blumenau",-26.9035031,-49.0930125,supermarket
UniBox Atacarejo - Água Verde,"Rua Frei Estanislau Schaette, 404 - Água Verde, Blumenau",-26.9115545,-49.096633,supermarket
LF Fitness Store,"R. Humberto de Campos, 77 - Sala 11 - Velha, Blumenau",-26.9135498,-49.0806345,store
Blumenau,"Rua Engenheiro Paul Werner - Itoupava Seca, Blumenau",-26.8954724,-49.0830316,hospital
Hospital Dia do Pulmão,"Rua Engenheiro Paul Werner, 1141 - Itoupava Seca, Blumenau",-26.8945304,-49.0852023,hospital
Certro Clinico Dr Blumenau,"R. Floriano Peixoto, 252-262 - Centro, Blumenau",-26.9235161,-49.06420139999999,hospital
Unimed Blumenau - Centro de Diagnóstico,"R. Ingo Hering, 20 - Centro, Blumenau",-26.9203244,-49.06878890000001,hospital
HP Vacinas,"Rua Engenheiro Paul Werner, 1141 - Vila Nova, Blumenau",-26.8942756,-49.0847912,hospital
Clínica Oncológica,"Vorstadt, Blumenau",-26.916554,-49.0581908,hospital
Hospital Santa Isabel - Anestesiologia,"R. Floriano Peixoto, 300 - Centro, Blumenau",-26.923743,-49.0654824,hospital
Hospital Santa Isabel -Coloproctologia,"R. Floriano Peixoto, 300 - Centro, Blumenau",-26.923743,-49.0654824,hospital
Museu Hering,"R. Hermann Hering, 1740 - Bom Retiro, Blumenau",-26.9255339,-49.082234,cool things to do
Vila Germânica Park,"R. Alberto Stein, 199 - Velha, Blumenau",-26.9153594,-49.0844385,cool things to do
Parque Vila Germânica,"R. Alberto Stein, 199 - loja 109 - Velha, Blumenau",-26.9155433,-49.0846725,cool things to do
D'Chef Hamburgueria e Pub,"R. dos Caçadores, 3368 - Velha, Blumenau",-26.9309911,-49.12955239999999,restaurant
Hope Burger,"R. dos Caçadores, 3420 - Velha Central, Blumenau",-26.9312101,-49.1298632,restaurant
Paraíso dos Pastéis Blumenau,"R. dos Caçadores, 3707 - Velha Central, Blumenau",-26.9334237,-49.1312903,restaurant
Ponte Aldo Pereira de Andrade (Ponte de Ferro),"Pte. A P de Andrade - Ponta Aguda, Blumenau",-26.9130018,-49.0677628,tourist attractions
Burger Licious,"R. Amazonas, 1143 - Garcia, Blumenau",-26.9330724,-49.0594154,restaurant
Ibis Budget Blumenau,"R. Paulo Zimmermann, 142 - Centro, Blumenau",-26.915257,-49.071525,hotel
Blu Terrace Hotel,"R. Mariana Bronnemann, 230 - Velha, Blumenau",-26.9143756,-49.0837017,hotel
Hotel blue tower,"Rua Uruguai, 323 - Ponta Aguda, Blumenau",-26.9168667,-49.0652098,hotel
Blumenau Tower by Castelo Itaipava,"Rua Uruguai, 323 - Ponta Aguda, Blumenau",-26.9168576,-49.0651975,hotel
Hotel Steinhausen,"R. Minas Gerais, 53 - Centro, Blumenau",-26.9147718,-49.0810032,hotel
Hotel Domhof | Blumenau,"Rua Uruguai, 266 - Ponta Aguda, Blumenau",-26.9170294,-49.0643807,hotel
Hotel Pousada XV,"R. XV de Novembro, 1290 - Centro, Blumenau",-26.9169715,-49.0678755,hotel
Pousada & Hostel Econômica,"R. Chile, 322 - Ponta Aguda, Blumenau",-26.9168369,-49.0610179,hotel
BankOne - Santa Catarina,"R. Dr. Léo de Carvalho, 74 - Sala 508 - Velha, Blumenau",-26.9145021,-49.0881064,bank
Itaú - Ag. 7487 - Blumenau Velha,"R. Alm. Tamandaré, 1130 - Vila Nova, Blumenau",-26.9107679,-49.0923862,bank
Mini Mercado Fites,"R. José Isidoro Corrêa, 276 - Ponta Aguda, Blumenau",-26.9002057,-49.04911389999999,supermarket
Supermercado Ponto Econômico,"R. das Missões, 1870 - Ponta Aguda, Blumenau",-26.8990198,-49.0590436,supermarket
Mercado do Pelé,"R. Geraldo Manoel Rosa, 1744 - Ponta Aguda, Blumenau",-26.8998025,-49.052945,supermarket
House Burguer Lanchonete e Restaurante,"R. Johann Ohf, 2624 - Velha Central, Blumenau",-26.9291916,-49.1352683,restaurant
Assadão Caçadores,"R. dos Caçadores, 3022 - Velha Central, Blumenau",-26.9299143,-49.12620949999999,restaurant
Rei Açaí -sorveteria ( buffet de sorvete e açaí ),"R. dos Caçadores, 3349 - sala 3 - Velha Central, Blumenau",-26.9309842,-49.1290535,restaurant
Japa Dog Lanches e marmitaria,"R. Georg Bachman, 39 - Velha Central, Blumenau",-26.930247,-49.1288273,restaurant
Guulanches,"R. dos Caçadores, 2700 - Velha, Blumenau",-26.9293152,-49.1233037,restaurant
Pizzaria 48 horas,"R. dos Caçadores, 3144 - Velha Central, Blumenau",-26.9299651,-49.12747160000001,restaurant
Dog Da Bibinha Velha.,"R. dos Caçadores, 2512 - Velha, Blumenau",-26.9285774,-49.12189009999999,restaurant
SICOOB,"R. Gen. Osório, 2813 - Água Verde, Blumenau",-26.9093122,-49.1214945,bank
BANCO DO BRASIL - SAA-BAIRRO DA VELHA - Agência 2999,"R. João Pessoa, 3120 - Velha, Blumenau",-26.9228851,-49.1011534,bank
FAST BPO FINANCEIRA,"R. Felipe Otto Becker, 55 - Sala 105 - Asilo, Blumenau",-26.9118313,-49.0998081,bank
Mini Mercado Água Branca,"R. Água Branca, 1984 - Salto Weissbach, Blumenau",-26.8931966,-49.1275203,supermarket
Mercado Weise,"R. Gerhard Stark, 296 - Salto Weissbach, Blumenau",-26.8992125,-49.1359428,supermarket
Mercado E Açougue Verdi,"R. José Deeke, 436 - Asilo, Blumenau",-26.8907569,-49.1025569,supermarket
Conveniência Am/PM,"R. Bahia, 2055 - Salto, Blumenau",-26.8839113,-49.1017169,store
NETY STORE,"R. Dois de Setembro, 4649 - Itoupava Norte, Blumenau",-26.8731845,-49.089357,store
Nina Store,"R. Dois de Setembro, 4558 - Itoupava Norte, Blumenau",-26.8736687,-49.0885142,store
LAZILLY STORE - MODA FEMININA,"R. Dois de Setembro, 2700 - Itoupava Norte, Blumenau",-26.889072,-49.0821623,store
Barão Store Blumenau,"R. Leopoldo Kirsten, 66 - Sala 2 - Itoupava Norte, Blumenau",-26.8849714,-49.08352319999999,store
Ativa Makeup Store,"R. Manoel Batista, 172 - Salto Norte, Blumenau",-26.8801381,-49.114486,store
Fit Store Suplementos,"R. São Paulo, 3180 - Itoupava Seca, Blumenau",-26.8919652,-49.0843648,store
Outfield Brand,"R. Santa Catarina, 155 - Itoupava Seca, Blumenau",-26.888506,-49.0861391,store
Beer2Go Conveniência,"R. Benjamin Constant, 1144 - Escola Agrícola, Blumenau",-26.8967574,-49.09937679999999,store
Shop 77,"R. Iguaçu, 500 - Itoupava Seca, Blumenau",-26.9026357,-49.08254119999999,store
Dtudumpouco Store,"R. Mal. Rondon, 91 - Salto Norte, Blumenau",-26.8767804,-49.1010983,store
Charlotte Fashion Store,"R. Bahia, 310 - sala 12 - Salto, Blumenau",-26.8903238,-49.0897248,store
Minipam Store,"R. Emiliano J. de Oliveira, 71 - Sala 204 - Vila Nova, Blumenau",-26.903814,-49.0926211,store
Geek Game Store Blumenau,"R. Frederico Schlei - Itoupava Norte, Blumenau",-26.8859597,-49.0806043,store
Hosp Santa Catarina Blu-ray,"R. Paris, 150 - Itoupava Norte, Blumenau",-26.8853025,-49.08190949999999,hospital
Casa Mais Iluminada do Brasil,"R. Antônina, 165 - Itoupava Norte, Blumenau",-26.8844478,-49.0744923,tourist attractions
"E.F.S.C. estação ferroviária Blumenau, desativada. (clínica veterinária atualmente).","Av. Martin Luther, 364 - Victor Konder, Blumenau",-26.9098181,-49.0717582,tourist attractions
Duuárabii Cozinha Árabe e Orient Food,"Alameda Rio Branco, 865 - Jardim Blumenau, Blumenau",-26.9301502,-49.06232019999999,restaurant
Super Batata Recheada,"R. Amazonas, 940 - Sala 02 - Garcia, Blumenau",-26.9311179,-49.0598102,restaurant
Hostel Rota do Vale,"R. Sorocaba, 137 - Victor Konder, Blumenau",-26.9129424,-49.07256719999999,hotel
AUSTRIA HOSTEL & POUSADA,"R. Rodeio, 171 - Centro, Blumenau",-26.9122581,-49.0792316,hotel
Hotel BlumenHof,"R. das Missões, 103 - Ponta Aguda, Blumenau",-26.9123134,-49.0669784,hotel
Itaú - Ag. 1293 - Blumenau Itoupava Seca,"R. São Paulo, 2700 - Itoupava Central, Blumenau",-26.8946115,-49.0806621,bank
Banco de Crédito Nacional S/A-BCN,"Rua Engenheiro Paul Werner, 925 - Itoupava Seca, Blumenau",-26.8962049,-49.0827605,bank
Larica Total Burger,"R. José Nazário Rebello, 21 - Velha, Blumenau",-26.9274448,-49.1316013,restaurant
Acácio,"R. Artur Grahl, 733 - Velha Central, Blumenau",-26.9263252,-49.13340660000001,restaurant
Aconchego do Vale Europeu,"R. Arthur Mantau, 1048 - Salto Weissbach, Blumenau",-26.9074618,-49.1389491,hotel
Loft Harmonia,"R. Arthur Mantau, 1014 - Passo Manso, Blumenau",-26.9078278,-49.1390068,hotel
Sicoob Multicredi - Água Verde,"R. Gen. Osório, 2.813 - Água Verde, Blumenau",-26.9092594,-49.1214157,bank
Mercado e açougue Evaristo,"R. José Deeke, 845 - Escola Agrícola, Blumenau",-26.8900276,-49.106584,supermarket
Margot Store,"R. Canário, 120 - Água Verde, Blumenau",-26.9124638,-49.1089119,store
Gaspar Bike,"R. dos Caçadores, 993 - Velha, Blumenau",-26.9181301,-49.115649,store
Yeeshop,"Rua Frei Estanislau Schaette, 980 - Água Verde, Blumenau",-26.9115137,-49.1022786,store
Lua Clara store - velha,"R. dos Caçadores, 859 - Velha, Blumenau",-26.9171866,-49.1152752,store
Tchebier Bebidas E Conveniência,"R. dos Caçadores, 2012 - Velha, Blumenau",-26.9247021,-49.1191681,store
A Baterias Tambosi Blumenau_Água Verde,"Rua Frei Estanislau Schaette, 2132 - Água Verde, Blumenau",-26.9120968,-49.1117942,store
"Florallini Store Loja de Roupas, Peças e Vestuário Feminino","R. Kurt Prayon, 255 - Velha, Blumenau",-26.9174309,-49.1258092,store
Restaurante e Lanchonete Pelicano,"R. dos Caçadores, 2420 - Velha Central, Blumenau",-26.9278267,-49.12108130000001,restaurant
Fran.food,"R. Laura Fernandes, 365 - Velha, Blumenau",-26.9269736,-49.1013554,restaurant
Assadão Empório dos Assados Blumenau,"R. Bagé, 41 - sala 02 - Velha Central, Blumenau",-26.926171,-49.120285,restaurant
Villa Bilac Studios,"R. Olavo Bilac, 158 - Velha, Blumenau",-26.9233798,-49.0975955,hotel
Hamburgão,"R. Gov. Jorge Lacerda, 991 - Velha, Blumenau",-26.9281994,-49.1167095,restaurant
Banco Bradesco - Agência 2246,"R. João Pessoa, 2008 - Velha, Blumenau",-26.9184954,-49.0921533,bank
Federal Savings Bank,"R. João Pessoa, 2660 - Velha, Blumenau",-26.9206339,-49.0980631,bank
Banco De Sangue,"Rua Theodoro Holtrup, 40 - Vila Nova, Blumenau",-26.9091735,-49.0826929,bank
Mini Mercado Gama,"R. Gustavo Salinger, 732 - Itoupava Seca, Blumenau",-26.8965156,-49.0875235,supermarket
Mercado Bértoli,"R. Gustavo Salinger, 732 - Itoupava Seca, Blumenau",-26.8965297,-49.0875071,supermarket
Pousada Casa da Maga (Vila Germânica),"R. Colombo, 50 - Velha, Blumenau",-26.9172362,-49.0912221,hotel
iUP HOUSE Hostel,"R. Júlio Baumgarten, 465 - Vila Nova, Blumenau",-26.9073916,-49.0961692,hotel
Pousada Blumenau,"R. João Pessoa, 421 - Centro, Blumenau",-26.9143217,-49.0791108,hotel
Blu Hostel,"R. Alfredo Günther, 94 - Vila Nova, Blumenau",-26.9074053,-49.08081139999999,hotel
Pousada Villa Dom Carlos,"R. Alberto Stein, 474 - Velha, Blumenau",-26.9129926,-49.0853143,hotel
Espaço Herlang,"R. Reinoldo Koffke, 40 - Velha, Blumenau",-26.917588,-49.0847638,hotel
Banrisul S.A. - Banco Do Estado Do RGS S.A.,"R. São Paulo, 1277 - Victor Konder, Blumenau",-26.9060585,-49.0764498,bank
PuBrasil Lanches - Garcia,"R. Amazonas, 4011 - Garcia, Blumenau",-26.9531644,-49.0702215,restaurant
Festival da Tilápia,"Alameda Rio Branco, 697 - Jardim Blumenau, Blumenau",-26.9286699,-49.0621746,restaurant
Acarajé da Lu,"R. Amazonas, 610 - Garcia, Blumenau",-26.9286233,-49.0582765,restaurant
Tio Pytter Restaurante e Café Gourmet,"R. Amazonas, 482 - Garcia, Blumenau",-26.927333,-49.0575238,restaurant
Pousada Jardim Alameda.,"R. São Paulo, 688 - Victor Konder, Blumenau",-26.9098237,-49.0726158,hotel
Toca Restaurante,"R. Amazonas, 730 - Garcia, Blumenau",-26.9298503,-49.0591612,restaurant
Restaurante Colher de Ouro,"R. Max Wehmuth, 91 - Garcia, Blumenau",-26.9279114,-49.056459,restaurant
Pousada Bonatti,"R. João Pessoa, 77 - Centro, Blumenau",-26.9146612,-49.0761356,hotel
EVS VELHA HERBAFORTS,"R. dos Caçadores - Velha, Blumenau",-26.925081,-49.1193835,restaurant
Refeições M & M,"R. Gov. Jorge Lacerda, 1170 - Velha, Blumenau",-26.9257549,-49.1112006,restaurant
Máfia Burger Mix Velha,"R. Gov. Jorge Lacerda, 344 - Velha, Blumenau",-26.9250328,-49.104636,restaurant
More Flavor Salgados,"R. Herval do Oeste, 218 - Velha Central, Blumenau",-26.9261834,-49.1223122,restaurant
Residence Duna Apart Hotel,"Rua Theodoro Holtrup, 577 - Vila Nova, Blumenau",-26.9060381,-49.0866845,hotel
Pousada Dilocare,"R. Júlio Baumgarten, 450 - Água Verde, Blumenau",-26.9073512,-49.0957352,hotel
Banco Bradesco - Agência 2109,"R. Dois de Setembro, 2660 - Itoupava Norte, Blumenau",-26.8895063,-49.0817768,bank
Bank of Brazil,"R. Benjamin Constant, 1067 - Escola Agrícola, Blumenau",-26.8961459,-49.09902959999999,bank
Banco Santander - Agência 0938 - Itoupava Blumenau,"R. Dois de Setembro, 2624 - Itoupava Norte, Blumenau",-26.8896419,-49.0816408,bank
Mercearia Angioletti,"R. Prof. Fernando Ostermman, 51 - Itoupava Norte, Blumenau",-26.8914214,-49.066503,supermarket
Supermercado Unidos,"R. Bahia, 310 - Salto, Blumenau",-26.8905319,-49.0898352,supermarket
Bistek Supermarkets - Shop Itoupava North,"R. 7 de Maio, 1600 - Itoupava Norte, Blumenau",-26.8866639,-49.0679222,supermarket
Mercado 7 de Maio,"R. 7 de Maio, 641 - Itoupava Norte, Blumenau",-26.8893792,-49.0679021,supermarket
Ristorante Funiculì Funiculà Blumenau,"R. Hermann Hering, 532 - Bom Retiro, Blumenau",-26.9253455,-49.0707282,restaurant
Magnani Bistrô,"R. Hermann Hering, 01 - Bom Retiro, Blumenau",-26.9258718,-49.0657371,restaurant
Hotel Steinhausen Colonial,"R. Buenos Aíres, 275 - Ponta Aguda, Blumenau",-26.9062044,-49.0672724,hotel
Maria Flor Boutique,"R. Nereu Ramos, 942 - Jardim Blumenau, Blumenau",-26.9301428,-49.0644747,store
MXT Shop Liquidae,"R. Amazonas, 1255 - Garcia, Blumenau",-26.9341472,-49.0601475,store
Flora Bistrô & Café,"R. Dr. Luiz de Freitas Melro, 163 - Jardim Blumenau, Blumenau",-26.9249666,-49.0615011,restaurant
Master Restaurante,"Alameda Rio Branco, 333 - Jardim Blumenau, Blumenau",-26.9254681,-49.0609581,restaurant
Restaurante Antártida,"R. Cel. Vidal Ramos, 185 - Jardim Blumenau, Blumenau",-26.9259793,-49.0628043,restaurant
Il Gatto Nero Restaurante,"Alameda Rio Branco, 286 - LOJA C - Centro, Blumenau",-26.9251263,-49.0614088,restaurant
Papparella Trattoria e Pizzaria Blumenau,"Alameda Rio Branco, 453 - Jardim Blumenau, Blumenau",-26.9264798,-49.0613593,restaurant
Brava Sushi - Blumenau,"Alameda Rio Branco, 403 - Vila Formosa, Blumenau",-26.9260607,-49.0611301,restaurant
Hostel Jardim de Lótus,"R. Buenos Aíres, 95 - Ponta Aguda, Blumenau",-26.9077536,-49.06813830000001,hotel
O Boticário,"R. Amazonas, 3000 - Garcia, Blumenau",-26.9446164,-49.0729513,store
Restaurante Pede Bis,"R. Gen. Osório, 205 - Velha, Blumenau",-26.9237631,-49.1044048,restaurant
Restaurante Universitário - UFSC Blumenau,"R. João Pessoa, 2957 - Velha, Blumenau",-26.9228457,-49.0991218,restaurant
Sam's House,"R. Gov. Jorge Lacerda, 712 - Velha, Blumenau",-26.9236172,-49.1077542,restaurant
Gran Burger Blumenau,"R. João Pessoa, 3270 - Velha, Blumenau",-26.9238005,-49.1021404,restaurant
Rafaela Salgaderia,"R. Jundiaí, 131 - Velha, Blumenau",-26.924525,-49.109998,restaurant
Big hunger,"R. Euclídes da Cunha, 271 - Velha, Blumenau",-26.9245701,-49.09726449999999,restaurant
Sabor Imperial,"R. Ângelo Dias, 251 - Centro, Blumenau",-26.9240055,-49.0632858,restaurant
Pasta e Basta,"R. Dr. Luiz de Freitas Melro, 53 - Jardim Blumenau, Blumenau",-26.9251976,-49.0603053,restaurant
Ocean Sushi Bar,"R. Dr. Luiz de Freitas Melro, 163 - Jardim Blumenau, Blumenau",-26.9249666,-49.0615011,restaurant
Alameda Lanches,"Alameda Rio Branco, 280 - Centro, Blumenau",-26.9254048,-49.0614739,restaurant
Isolde de Souza,"R. Luxemburgo, 255 - Passo Manso, Blumenau",-26.9214241,-49.1454593,restaurant
Mega Batata,"R. João Pessoa, 2954 - Velha, Blumenau",-26.9226233,-49.0991514,restaurant
Tuta Lanches,"R. Gen. Osório, 365 - Velha, Blumenau",-26.9220234,-49.1053514,restaurant
Ugly’s Big fast-food - the classic!,"R. João Pessoa, 3222 fundos - Velha, Blumenau",-26.9235146,-49.1016524,restaurant
Hostel Feel Home,"R. Teresópolis, 356 - Itoupava Seca, Blumenau",-26.903881,-49.0807082,hotel
Cia do Lanche Express,"R. João Pessoa, 2929 - Velha, Blumenau",-26.9227369,-49.0988736,restaurant
Pizzaria e pastelaria Casa Velha,"R. Gen. Osório, 509 - Velha, Blumenau",-26.9211514,-49.1058641,restaurant
Pousada Casa da Pedra,"R. Prof. João Boos, 280 - Vila Nova, Blumenau",-26.9010522,-49.08503690000001,hotel
Angioklinik HSC - Unidade Hospital Santa Catarina,"R. Amazonas, 301 - Garcia, Blumenau",-26.9262063,-49.0554897,hospital
Madero Steak House Blumenau,"Shopping Neumarkt, R. 7 de Setembro, 1213 - Centro, Blumenau",-26.9212265,-49.0703201,restaurant
Outback Steakhouse,"R. 7 de Setembro, 1213 - Centro, Blumenau",-26.9205616,-49.0696078,restaurant
Casa Olga,"Centro, Blumenau",-26.9205014,-49.0689614,restaurant
Holiday Restaurante,"R. 7 de Setembro, 1015 - Centro, Blumenau",-26.9215158,-49.0667956,restaurant
Santo Fogão Restaurante & Grill - Blumenau,"Esquina com - Rua Caetano Deeke, R. Curt Hering, 87 - Centro, Blumenau",-26.9215952,-49.0643191,restaurant
Brasilic Superfood Bar,"R. Cap. Euclídes de Castro, 64 - Centro, Blumenau",-26.920474,-49.0655252,restaurant
Polpetta,"R. Cap. Euclídes de Castro, 74 - Centro, Blumenau",-26.9204629,-49.0656024,restaurant
Hotel Kloppel,"R. República Argentina, 2655 - Ponta Aguda, Blumenau",-26.9041978,-49.0459593,hotel
Restaurante Celeiro,"R. Floriano Peixoto, 55 - Centro, Blumenau",-26.9219643,-49.0631748,restaurant
Aikau Poke,"R. Curt Hering, 40 - Centro, Blumenau",-26.9218045,-49.06382379999999,restaurant
Seu Porco Blumenau,"R. Floriano Peixoto, 55 - Centro, Blumenau",-26.922113,-49.0634236,restaurant
Bradesco Prime - Agência 3483,"R. XV de Novembro, 626 - Centro, Blumenau",-26.9210667,-49.0630555,bank
FIESC - Vice Presidência Vale do Itajaí,"Rua Antônio Treis, 607 - Vorstadt, Blumenau",-26.9012659,-49.0378183,bank
Agibank - Loja Promil Blumenau XV de Novembro,"R. XV de Novembro, 895 - Centro, Blumenau",-26.9200164,-49.0652632,bank
Caixa Eletrônico - Caixa Econômica Federal,"Edifício Hering - R. XV de Novembro, 759 - Centro, Blumenau",-26.920979,-49.0642842,bank
HSBC Bank,"R. República Argentina, 563 - Ponta Aguda, Blumenau",-26.914331,-49.0605848,bank
Banco Safra - Ag. 0067 - Blumenau,"R. 7 de Setembro, 673 - Centro, Blumenau",-26.9230744,-49.0638004,bank
Restaurante e Confeitaria Blumenau,"R. Ângelo Dias, 57 - Centro, Blumenau",-26.9222875,-49.0625246,restaurant
FoodParkPonto7,"R. 7 de Setembro, 673 - Centro, Blumenau",-26.9231265,-49.0636457,restaurant
Vegecetera,"R. Ângelo Dias, 45 - Centro, Blumenau",-26.9222959,-49.0624125,restaurant
Sushi Yuzu,"R. Curt Hering, 33 - Centro, Blumenau",-26.9221114,-49.0637322,restaurant
Veiga Café e Restaurante,"R. Nereu Ramos, 75 - Centro, Blumenau",-26.9230453,-49.0614584,restaurant
Restaurante Chinês,"R. XV de Novembro, 340 - Centro, Blumenau",-26.9223565,-49.0604887,restaurant
Thapyoka Restaurante,"R. XV de Novembro, 160 - Centro, Blumenau",-26.9219672,-49.0592621,restaurant
Restaurante Empório Recanto do Sabor - Tempero Mineiro,"R. 7 de Setembro, 432 - Centro, Blumenau",-26.923355,-49.06157400000001,restaurant
Le Bistrô,"R. Gen. Osório, 748 - Velha, Blumenau",-26.9192451,-49.106461,restaurant
Restaurante Bola Branca,"R. Laguna, 68 - Velha, Blumenau",-26.919624,-49.0904789,restaurant
Do Sítio Restaurante,"R. João Pessoa, 1671 - Velha, Blumenau",-26.918989,-49.08971330000001,restaurant
NOSSA Cozinha e Bar,"R. João Pessoa, 1377 - Velha, Blumenau",-26.9183263,-49.0869563,restaurant
Restaurante Fazendinha,"R. João Pessoa, 1671 - Velha, Blumenau",-26.9189021,-49.0897563,restaurant
Roswell Grill Burger,"R. dos Caçadores, 1122 - Velha, Blumenau",-26.9189306,-49.11669759999999,restaurant
Don Degan Pizzaria,"R. dos Caçadores, 1500 - Velha, Blumenau",-26.9214318,-49.1164862,restaurant
Sandalho Blumenau,"R. João Pessoa, 1548 - Velha, Blumenau",-26.9183034,-49.0886456,restaurant
Botic Restaurant & Bar,"R. Petrópolis, 342 - Centro, Blumenau",-26.9184095,-49.07580610000001,restaurant
Oliv Restaurante,"R. 7 de Setembro, 1455 - Centro, Blumenau",-26.9183493,-49.0702557,restaurant
Outback Blumenau - Shopping Neumarkt,"R. 7 de Setembro, 1213 - Centro, Blumenau",-26.9206633,-49.0699272,restaurant
Camarão Express Neumarkt,"Shopping Neumarkt, R. 7 de Setembro, 1213 - Loja 32 - Centro, Blumenau",-26.920565,-49.069846,restaurant
Due Sapori Restaurante,"Shopping Neumarkt - R. 7 de Setembro, 1213 - Loja 35 - Centro, Blumenau",-26.9198526,-49.0692549,restaurant
Spedini - Neumarkt Blumenau,"R. 7 de Setembro, 1213 - Lj 34 - Centro, Blumenau",-26.9206633,-49.0699272,restaurant
MAILDE BISTRÔ,"R. Curt Hering, 298 - Centro, Blumenau",-26.9206778,-49.0659267,restaurant
Tunga Choperia,"R. XV de Novembro, 1020 - Centro, Blumenau",-26.9190011,-49.0659437,restaurant
Restaurante Kimiaki,"Edifício Hering - R. XV de Novembro, 759 - Centro, Blumenau",-26.9209858,-49.0641892,restaurant
O Porão Restaurante e Buffet,"R. XV de Novembro, 701 - Centro, Blumenau",-26.9211861,-49.0637575,restaurant
Restaurante Isalon,"R. Floriano Peixoto, 26 - Centro, Blumenau",-26.9216872,-49.0634581,restaurant
HA Refeições,"R. Bernardo Reiter, 2546 - Sala 02 - Passo Manso, Blumenau",-26.9164535,-49.1511027,restaurant
Tasty,"R. Gen. Osório, 1209 - Velha, Blumenau",-26.9163639,-49.1086138,restaurant
Buffalo's Grill,"R. Joaquim Nabuco, 45 - Velha, Blumenau",-26.9166069,-49.1078893,restaurant
Supermercado Com Tudo,"R. José Reuter, 2263 - Velha Central, Blumenau",-26.9376352,-49.1471672,supermarket
Mercado Judá,"R. Adele Jansen, 362 - Passo Manso, Blumenau",-26.9119649,-49.1466424,supermarket
SOUFIT Store LTDA,"R. Gen. Osório, 4584 - Salto Weissbach, Blumenau",-26.9009327,-49.1345402,store
Blew Store,"R. Luísa Inês Andrioli Vicentini, 80 - Passo Manso, Blumenau",-26.9095911,-49.1480853,store
Plana Store,"R. Bahia, 7440 - Sala 4 - Passo Manso, Blumenau",-26.8998316,-49.1431931,store
Baterias Moreira- Loja de Bateria de Carro em Blumenau,"R. Gen. Osório, 3795 - Água Verde, Blumenau",-26.9071938,-49.1300975,store
Baterias em Blumenau 24h,"R. Bahia, 5683 - Salto, Blumenau",-26.8938116,-49.13002119999999,store
MandaShop,"R. Água Branca, 1085 - Salto Weissbach, Blumenau",-26.9007733,-49.1266004,store
Point Drink Haus,"R. Bahia, 6111 - Salto Weissbach, Blumenau",-26.8959138,-49.1326403,store
Jonte Store,"R. Angelina, 194 - Água Verde, Blumenau",-26.9135269,-49.1356834,store
Tuppeware,R. Gen. Osório - Blumenau,-26.9072086,-49.1299035,store
The Paper Sense,"R. José Ramos - Salto Weissbach, Blumenau",-26.9025306,-49.12634480000001,store
IMPÉRIOMED,"R. Ernesto Schadrack, 105 - Água Verde, Blumenau",-26.9102369,-49.12976099999999,store
Amora Rosa,"R. Gen. Osório, 3336 - Velha, Blumenau",-26.908889,-49.1263631,store
Prazer Pleno Sex Shop,"Casa Verde De Dois Andares - R. Bernardo Reiter, 2604 - Passo Manso, Blumenau",-26.916121,-49.1517013,store
Moda Surf,"Rua Carlos Kuhlmann, 32 - Água Verde, Blumenau",-26.9119226,-49.1272919,store
Duda Bazar,"R. Guilherme Poerner, 1218 - Passo Manso, Blumenau",-26.9086151,-49.1432666,store
ninali,"R. Artur Oscár Kluge, 110 - Passo Manso, Blumenau",-26.9008851,-49.1513579,store
Chef do Yakisoba,"Na última casa atrás do Empório Frozen - R. Helmuth Metzger, 44 - Velha, Blumenau",-26.9195207,-49.0973365,restaurant
Oriental Temakeria,"R. dos Caçadores, 993 (Fundos - Velha, Blumenau",-26.9181756,-49.1157179,restaurant
Restaurante Gutes Essen,"R. Mal. Deodoro, 202 - Velha, Blumenau",-26.9170559,-49.0905266,restaurant
Restaurante Kimichina,"R. João Pessoa, 1382 - Velha, Blumenau",-26.91809,-49.0872225,restaurant
Risotolândia Food Services,"R. João Pessoa, 1261 - Velha, Blumenau",-26.9185771,-49.0856285,restaurant
Pizzaria La Montiny,"R. Jaraguá, 42 - Velha, Blumenau",-26.9183788,-49.0909004,restaurant
Frango no Potchê,"R. João Pessoa, 1552 - Velha, Blumenau",-26.9183065,-49.0886484,restaurant
Restaurante Salzblume,"R. 7 de Setembro, 1415 - Centro, Blumenau",-26.918819,-49.07006740000001,restaurant
Restaurante Sabor Especial,"R. Pres. Getúlio Vargas, 144 - Centro, Blumenau",-26.916744,-49.0690395,restaurant
Feng Cheng Restaurante - Comida Oriental,"R. 7 de Setembro, 1218 - Centro, Blumenau",-26.9198483,-49.0689329,restaurant
Restaurante dos Comerciários,"R. Pres. John Kenedy, 91 - Centro, Blumenau",-26.9188615,-49.0676737,restaurant
Nico Bier - CHOPP DELIVERY,"R. Humberto de Campos, 990 - Velha, Blumenau",-26.915723,-49.0890223,supermarket
Livrarias Catarinense Neumarkt Shopping,"R. 7 de Setembro, 1213 - Centro, Blumenau",-26.9202902,-49.069242,store
Villa Sul,"Parque Vila Germânica, R. Alberto Stein, 199 - Loja 03 - Velha, Blumenau",-26.9158015,-49.085251,store
Restaurante Moinho do Vale,"R. Porto Rico, 66 - Ponta Aguda, Blumenau",-26.9192632,-49.0604889,restaurant
Restaurante Immer Hoffen - Anexo à AABB,"R. Paraguay, 90 - Ponta Aguda, Blumenau",-26.9184468,-49.0605837,restaurant
DOG DOÍA LANCHES,"R. Johann Ohf, 1230 - Água Verde, Blumenau",-26.9159077,-49.134768,restaurant
Aime's Fast Food,"R. Mal. Deodoro, 397 - Velha, Blumenau",-26.9155645,-49.0916337,restaurant
Choperia e Restaurante Vila Germânica,"R. Alberto Stein, 215 - Velha, Blumenau",-26.9154422,-49.0844253,restaurant
Eisenbahn Bierhaus,"R. Alberto Stein, 199 - Setor 4 - Velha, Blumenau",-26.9169342,-49.0843451,restaurant
The Family's Burger & Pizza - Vila Germânica,"R. Alberto Stein, 5 - Velha, Blumenau",-26.9168952,-49.0833401,restaurant
Autonoma,"R. Alberto Stein, 48 - Velha, Blumenau",-26.9163757,-49.0834236,restaurant
Mini Market Silva,"R. Bahia, 4006 - Salto Weissbach, Blumenau",-26.8866476,-49.1177748,supermarket
Super Ferreira,"R. Bahia, 3036 - Salto, Blumenau",-26.8840811,-49.10956969999999,supermarket
Superiti Supermercado Digital - Unidade Blumenau/SC,"R. 25 de Agosto, 272 - Itoupava Norte, Blumenau",-26.8788188,-49.0834159,supermarket
Rede Nosso Ponto Supermercados - Administração,"R. Dois de Setembro, 3999 - Sala 102 - Itoupava Norte, Blumenau",-26.8785912,-49.08683540000001,supermarket
Mercado,"R. Dr. Fritz Müeller, 879 - Salto, Blumenau",-26.8867539,-49.1089141,supermarket
Minimercado Henkels,"R. Ervin Evaldo Henkels, 600 - Salto Norte, Blumenau",-26.8804775,-49.1173397,supermarket
Cooper Itoupava Norte,"R. Dois de Setembro, 3162 - Itoupava Norte, Blumenau",-26.885614,-49.0835693,supermarket
Brasil Store Shop,"R. Carlos Rischbieter, 1882 - Blumenau",-26.8978263,-49.0636106,store
Lua Clara | Store -Blumenau B.Fortaleza,"Próximo do Terminal Fortaleza, ao lado da Farmácia Sesi, R. Francisco Vahldieck, 955 - Fortaleza, Blumenau",-26.8787414,-49.0676656,store
Akell Store - Moda Feminina,"R. Francisco Vahldieck, 1381 - Fortaleza, Blumenau",-26.8754443,-49.06523490000001,store
47 STORE,"R. João Paulo I, 227 - Itoupava Norte, Blumenau",-26.8888622,-49.0665786,store
Conceitto Store,"R. Francisco Vahldieck, 777 - Fortaleza, Blumenau",-26.8806324,-49.0686664,store
Patinha Store,"R. 11 de Junho, 70 - Itoupava Norte, Blumenau",-26.8887843,-49.08175989999999,store
Vento Sul Store,"R. Admar Manoel dos Santos, 523 - Fortaleza, Blumenau",-26.8723866,-49.07431039999999,store
Friends Geek Store,"Shopping Park Europeu - Itoupava Norte, Blumenau",-26.8861856,-49.0687065,store
O libanês,"R. Poços de Caldas, 164 - Centro, Blumenau",-26.918044,-49.0776171,restaurant
Alemão Batata Choperia,"R. Alberto Stein, 199 - Velha, Blumenau",-26.9151349,-49.0848655,restaurant
Eisenbahn Biergarten,"R. Mariana Bronnemann, 230 - Velha, Blumenau",-26.9143594,-49.0837306,restaurant
Restaurante Blumenau,"R. Alberto Stein, 62 - Velha, Blumenau",-26.9162399,-49.0835046,restaurant
RESTAURANTE IBIS BUDGET,"R. Paulo Zimmermann, 142 - Centro, Blumenau",-26.9151553,-49.0715562,restaurant
Restaurante ryotei,"Petrópolis, Blumenau",-26.9165792,-49.0717331,restaurant
Restaurante & grill Per Tutti,"R. Dr. Amadeu da Luz, 40 - Centro, Blumenau",-26.9153242,-49.0699191,restaurant
Frantz Restaurante Steak & Beer,"R. Pres. Getúlio Vargas, 227 - Centro, Blumenau",-26.9165204,-49.0702973,restaurant
Eldorado Restaurante & Grill,"Av. Pres. Castelo Branco, 883 - Centro, Blumenau",-26.9176942,-49.0670424,restaurant
Restaurante O Estrangeiro,"Rua Uruguai, 422 - Ponta Aguda, Blumenau",-26.9159654,-49.0655456,restaurant
Restaurante Varanda da XV,"Em frente a Receita Federal - R. XV de Novembro, 1253 - Centro, Blumenau",-26.9176508,-49.06781549999999,restaurant
Restaurante Ô Querido,"Edifício Bremen Zenter - R. XV de Novembro, 1.357 - Centro, Blumenau",-26.9171745,-49.0680651,restaurant
Restaurante e Lanchonete Ponta Aguda,"R. República Argentina, 179 - Ponta Aguda, Blumenau",-26.9166721,-49.0634715,restaurant
Burger And Beyond,"R. Josepha Micheluzzi, 230 - Passo Manso, Blumenau",-26.9124716,-49.13842229999999,restaurant
Gulla's Bar,"R. Erwin Bugmann, N° 86 - Velha, Blumenau",-26.9143355,-49.1147631,restaurant
Casa Parmegianas,"R. dos Caçadores, 72 - Velha, Blumenau",-26.915399,-49.11007679999999,restaurant
Caminhos da Gula,"R. Dr. Antônio Hafner, 269 - Apto 304 - Água Verde, Blumenau",-26.9142961,-49.0997157,restaurant
Seven Truck,"R. Mal. Deodoro, 397 - Velha, Blumenau",-26.9155652,-49.0916377,restaurant
Macarronada Bonassoli,"R. Princesa Izabel, 245 - Velha, Blumenau",-26.9161438,-49.0892413,restaurant
Frühstück,"R. Dr. Léo de Carvalho, 74 - Velha, Blumenau",-26.9144767,-49.088037,restaurant
HANGOO Restaurante e Pizzaria,"R. Humberto de Campos, 337 - Velha, Blumenau",-26.9140469,-49.0829588,restaurant
Restaurante e pizzaria Varanda da Villa,"R. Humberto de Campos, 367 - Velha, Blumenau",-26.9141574,-49.0833162,restaurant
Restaurante Essen Platz,"R. Humberto de Campos, 77 - Centro, Blumenau",-26.9131381,-49.0805906,restaurant
Don Peppone Ristorante e Pizzeria,"R. 7 de Setembro, 2013 - Centro, Blumenau",-26.9150673,-49.0738658,restaurant
Choperia Bier Vila,"R. Alberto Stein, 199 - Sala 100 - Velha, Blumenau",-26.915679,-49.084601,restaurant
RESTAURANTE MAIS SABOR,"R. Bolívia, 209 - Ponta Aguda, Blumenau",-26.9153433,-49.0643974,restaurant
Pastelaria Rivas,"R. Johann Ohf, 859 - Água Verde, Blumenau",-26.9137616,-49.1335764,restaurant
Restaurante Comy”s & beby”s,"Rua Frei Estanislau Schaette, 833 - Água Verde, Blumenau",-26.9122607,-49.1005312,restaurant
Hotel St. John,"R. São Paulo, 3191 - Itoupava Seca, Blumenau",-26.8920737,-49.0847505,hotel
Hostel Tia Republic Fa,"R. Fides Deeke, 408 - Itoupava Seca, Blumenau",-26.8996845,-49.0843715,hotel
Banco Itaú - Agência 7134,"R. Dois de Setembro, 3520 - Itoupava Norte, Blumenau",-26.88233,-49.0850707,bank
Red Food Truck,"Rua Frei Estanislau Schaette, 676 - Água Verde, Blumenau",-26.9120606,-49.0992087,restaurant
Figueira Restaurante,"R. Mariana Bronnemann, 527 - Velha, Blumenau",-26.9119877,-49.08532899999999,restaurant
Brasileirinho Delivery,"R. 7 de Setembro, número 2511 - loja 1 - Centro, Blumenau",-26.91317,-49.078933,restaurant
Toscana Buffet,"R. 7 de Setembro, 2303 - Centro, Blumenau",-26.9139846,-49.0764746,restaurant
100% Free Cozinha Gourmet,"R. Victor Konder, 413 - Victor Konder, Blumenau",-26.9116256,-49.0755589,restaurant
TOPP BURGUER,"R. Guilherme Poerner, 1553 - Passo Manso, Blumenau",-26.908932,-49.1460181,restaurant
Hot Dog Do Xande,"R: Guilherme Poerner, N° 1120 - Passo Manso, Blumenau",-26.9086291,-49.1420961,restaurant
Lanchonete Primavera,"R. Guilherme Poerner, 1145 - Passo Manso, Blumenau",-26.9089432,-49.1423524,restaurant
Restaurante Oba OBa,"R. Guilherme Poerner, 756 - Passo Manso, Blumenau",-26.9086595,-49.1391664,restaurant
Restaurante Ferreira Comida Caseira Buffet Livre Marmitex,"R. Guilherme Poerner, 460 - Água Verde, Blumenau",-26.9084857,-49.1361412,restaurant
Gula's Natural Food Água Verde,"Rua General Osório, nº 2170 Anexo à ADHering - Água Verde, Blumenau",-26.9108854,-49.1153899,restaurant
Restaurante Sabor D' Casa,"R. Gen. Osório, 2000 - Velha, Blumenau",-26.9112452,-49.11350239999999,restaurant
Barbaros Na Grelha,"Rua Frei Estanislau Schaette, 1777 - Água Verde, Blumenau",-26.9106024,-49.1094055,restaurant
Restaurante Pão e Vinho,"R. Alferes Von Seckendorf, 186 - Água Verde, Blumenau",-26.9105946,-49.1011619,restaurant
fok assadao,"Rua Frei Estanislau Schaette, 484 - sala 3 - Água Verde, Blumenau",-26.9117522,-49.0971402,restaurant
Restaurante Oca,"Rua Frei Estanislau Schaette, 86 - Água Verde, Blumenau",-26.9108126,-49.0936209,restaurant
Food Garden Bnu,"R. Alm. Tamandaré, 845 - Vila Nova, Blumenau",-26.9115541,-49.0893099,restaurant
Galo's Restaurante,"R. Alm. Tamandaré, 1368 - Vila Nova, Blumenau",-26.9114957,-49.0871797,restaurant
Heimat Restaurante e Eventos,"R. Alberto Koffke, 354 - Centro, Blumenau",-26.9107155,-49.0771738,restaurant
Klanns Café e Restaurante,"R. São Paulo, 515 - Victor Konder, Blumenau",-26.9112496,-49.07216690000001,restaurant
Empório do Sabor Restaurante,"R. São Paulo, 652 - Victor Konder, Blumenau",-26.9101382,-49.0725369,restaurant
Restaurante NOVO Sabor,"R. 7 de Setembro, 840 - Centro, Blumenau",-26.9220168,-49.0652138,restaurant
Chronic Store,"Edifício Hering - R. Curt Hering, 154 - Sala 2 - Centro, Blumenau",-26.920939,-49.0644206,store
Eliane Neveste Store,"R. Silvano Cândido da Silva Sênior - Ponta Aguda, Blumenau",-26.9011901,-49.0335463,store
SCHOP STOP,"R. XV de Novembro, 878 - Centro, Blumenau",-26.9198105,-49.0649412,store
Forinc Store Blumenau,"R. Cap. Euclídes de Castro, 52 - Centro, Blumenau",-26.9204119,-49.065538,store
Dakini Store,"R. 7 de Setembro, 710 - Centro, Blumenau",-26.9225162,-49.0640537,store
Urologia,"Praca Mal Mascarenhas De Moraes, 217 - Ribeirão Fresco, Blumenau",-26.9268329,-49.0555909,hospital
Glaspark Blumenau Museum,"R. Rudolf Roedel, 233 - Salto Weissbach, Blumenau",-26.8927402,-49.120758,cool things to do
Mozart Fábrica de Cristais Ltda,"R. Bahia, 4253 - Salto Weissbach, Blumenau",-26.8880116,-49.1196283,tourist attractions
Doce Tempero,"R. Gen. Osório, 3300 - Água Verde, Blumenau",-26.9088764,-49.12576749999999,restaurant
Água Verde Lanches e Petiscos,"R. Gen. Osório, 3300 - Água Verde, Blumenau",-26.9088825,-49.1257742,restaurant
Rei dos Assados,"R. Gen. Osório, 2745 - Água Verde, Blumenau",-26.9097998,-49.1210403,restaurant
Slice Gourmet,"Água Verde, Blumenau",-26.9082346,-49.11549050000001,restaurant
Pepper Jack Restaurante,"R. Joinville, 148 - Vila Nova, Blumenau",-26.9079737,-49.0825559,restaurant
Manoosh - Sabores do Oriente.,"R. Joinville, 46 - Vila Nova, Blumenau",-26.9086269,-49.0818165,restaurant
Restaurante Oliveira,"R. Johann G. H. Hadlich, 560 - Passo Manso, Blumenau",-26.9049503,-49.1494709,restaurant
Restaurante Rota do Sabor,"R. Gen. Osório, 4127 - Água Verde, Blumenau",-26.9043928,-49.1324485,restaurant
Assadão do Trevo,"R. Gen. Osório, 3927 - Água Verde, Blumenau",-26.9064429,-49.13128560000001,restaurant
Nonna Francesca Restaurante,"R. Antônio da Veiga, 69 - Victor Konder, Blumenau",-26.9062615,-49.07673639999999,restaurant
Mortadella Ristorante & Pizzeria,"Av. Martin Luther, 1001 - Victor Konder, Blumenau",-26.9064095,-49.0743438,restaurant
Rosa Mexicano,"R. Carlos Rischbieter, 61 - Victor Konder, Blumenau",-26.907282,-49.07314909999999,restaurant
Restaurante Kisabor,"R. São Paulo, n° 764 - sala 02 - Victor Konder, Blumenau",-26.9099377,-49.0725832,restaurant
Eskinão Lanches,"R. Johann G. H. Hadlich, 272 - Passo Manso, Blumenau",-26.9027626,-49.1504742,restaurant
Motel Flirt,"R. Bernardo Scheidemantel, 4140 - Testo Salto, Blumenau",-26.8828874,-49.1477952,hotel
Stone Vale Europeu,"Werner duwe, N°: 361:, sala: 09 - Badenfurt, Blumenau",-26.8794009,-49.141853,bank
Elite Soluções Financeiras,"R. Tecla Maria Alfarth, N° 111 - Encano Baixo, Indaial",-26.8922378,-49.162836,bank
Âncora Consultoria e Contabilidade,"R. Alberto Manzke, 84 - Passo Manso, Blumenau",-26.8992374,-49.1545102,bank
Super Ferreira Badenfurt,"Rodovia BR 470 , 5392 - Badenfurt, Blumenau",-26.882208,-49.1413488,supermarket
Supermercado Reiter,"R. Johann G. H. Hadlich - Passo Manso, Blumenau",-26.9024092,-49.15046479999999,supermarket
Empório de Curto Prazo,"R. Werner Duwe, 197 - Badenfurt, Blumenau",-26.881201,-49.1418629,supermarket
Mini Market G W Schneider,"R. Luísa Inês Andrioli Vicentini, 104 - Passo Manso, Blumenau",-26.909592,-49.148066,supermarket
W.SHIRT,"R. Helene Ohf, 228 - Água Verde, Blumenau",-26.9072152,-49.1330561,store
GOODWAYS,"Rua: dos Imigrantes, 365 - Passo Manso, Blumenau",-26.9119923,-49.1490605,store
Limite Sul uniformes esportivos,"R. Água Branca, 1751 - Salto Weissbach, Blumenau",-26.8950578,-49.1281978,store
Jô Modas,"R. Guilherme Poerner, 1149 - Passo Manso, Blumenau",-26.9089352,-49.1418433,store
Flero,"R. Otto Scheidemantel, 150 - Salto Weissbach, Blumenau",-26.900656,-49.1401653,store
Pin Shopping,"R. Júlio Kloth, 180 - Água Verde, Blumenau",-26.9082945,-49.13326139999999,store
Bazar Beijinho,"R. Dr. Blumenau, 9290 - Galpão A - Encano, Indaial",-26.8914294,-49.1601448,store
Bistrô Pai D'égua,"R. Água Branca, 636 - Água Verde, Blumenau",-26.9041067,-49.1243346,restaurant
Saint Peter Restaurante,"R. Benjamin Constant, 2469 - Vila Nova, Blumenau",-26.9041502,-49.0934634,restaurant
Elô Gastronomia,"R. Benjamin Constant, 2597 - Vila Nova, Blumenau",-26.9043678,-49.0928686,restaurant
Green Life - Real Food,"R. Benjamin Constant, 2767 - Vila Nova, Blumenau",-26.9056084,-49.0921375,restaurant
Paladar Europeu,"R. das Missões, 845 - Ponta Aguda, Blumenau",-26.9060563,-49.0661767,restaurant
Quintal do Boteco,"R. Lorenz - Encano, Indaial",-26.9017571,-49.190989,restaurant
Tropikano's Food Truck,"R. Johann G. H. Hadlich, 67 - Passo Manso, Blumenau",-26.9008426,-49.1494789,restaurant
Pizzaria Pães e Pães,"R. Johann G. H. Hadlich, 168 - Passo Manso, Blumenau",-26.9018818,-49.15034720000001,restaurant
POINT HATSABAGA,"R. Bahia, 8330 - Passo Manso, Blumenau",-26.9001113,-49.14904960000001,restaurant
Choppasso,"R. Bahia, 8149 - Passo Manso, Blumenau",-26.9016004,-49.1486951,restaurant
Restaurante Beck,"R. Rodolfo Hansen, 77 - Passo Manso, Blumenau",-26.9014362,-49.14417110000001,restaurant
Smokebeer,"R. Rodolfo Hansen, 57 - Passo Manso, Blumenau",-26.9012822,-49.1438319,restaurant
T & T restaurante e lanchonete,"R. Gen. Osório, 4568 - Salto Weissbach, Blumenau",-26.901143,-49.1343933,restaurant
Badok - Restaurante !!!Almoço/ Marmitex e Delivery de lanches,"R. Alm. Barroso, 1302 - Vila Nova, Blumenau",-26.9034339,-49.0911863,restaurant
Ambrosia gastro pizza bar,"R. Alm. Barroso, 1051 - Vila Nova, Blumenau",-26.9025487,-49.089011,restaurant
Restaurante Kamer,"R. Alm. Barroso, 1087 - Vila Nova, Blumenau",-26.9026316,-49.0891471,restaurant
Nacho Man Blumenau - Restaurante Mexicano,"R. Joinville, 861 - Vila Nova, Blumenau",-26.9033551,-49.08748689999999,restaurant
Restaurante Staloch,"R. Joinville, 849 - Vila Nova, Blumenau",-26.9035127,-49.08738109999999,restaurant
Pousada da Alê,"R. Umuarama, 101 - Ponta Aguda, Blumenau",-26.9115515,-49.0604057,hotel
Assadão expresso,"R. Bahia, 7189 - Passo Manso, Blumenau",-26.8994792,-49.1405234,restaurant
Don Gosto marmitaria,"R. Bahia, 7131 - Passo Manso, Blumenau",-26.8994679,-49.14043419999999,restaurant
Motel em Blumenau - CHALÉ MOTEL - Indaial,"R. Wanda Zils, 134 - Badenfurt, Blumenau",-26.8809641,-49.1601195,hotel
Intervalor Cobrança Gestão de Crédito e Call Center,Rua Werner Siemens 111 - GALPAO 25,-26.8638262,-49.1525712,bank
Supermercado Coripós,"Badenfurt, Blumenau",-26.8763538,-49.1449643,supermarket
GARCIA Supermercados,"R. Philipp Bauler, 2021 - Itoupavazinha, Blumenau",-26.8557287,-49.1331932,supermarket
Mercado JARDIM 2,"R. Mário Fossa - Badenfurt, Blumenau",-26.8785421,-49.1490652,supermarket
SUPERMERCADO ESTRELA,"R. Philipp Bauler, 745 - Testo Salto, Blumenau",-26.8628414,-49.1374499,supermarket
Mercado Nv,"R. Christiano Karsten, 1 - T Salto, Blumenau",-26.8519522,-49.1354408,supermarket
Mini Mercado Bauler,"R. Werner Duwe, 2011 - Testo Salto, Blumenau",-26.8665063,-49.1451098,supermarket
Super Mercado Irmaos JC,"R. Campo Mourão, 180 - Testo Salto, Blumenau",-26.8548449,-49.1395687,supermarket
Mercado Tatuzinho.,"R. Manoel José Sgrott, 130 - Badenfurt, Blumenau",-26.8758584,-49.1437359,supermarket
Coisas do Pará,"R. Carlos Kretz, 66 - Badenfurt, Blumenau",-26.8784124,-49.1348386,supermarket
MERCADO E PADARIA NINA,"1266, R. Philipp Bauler, 1240 - Testo Salto, Blumenau",-26.8597474,-49.1374562,supermarket
Fifo Itoupavazinha,"R. Philipp Bauler, 2060 - Testo Salto, Blumenau",-26.8558803,-49.1326519,supermarket
Blufloss Am bom preço,"R. Paulina Wagner, 81 - Badenfurt, Blumenau",-26.87584,-49.1397979,supermarket
Am Pm,"BR-470, 5500 - Badenfurt, Blumenau",-26.8819762,-49.1402356,store
MAREZIA_STORE,"R. Cravo Branco, 33 - Testo Salto, Blumenau",-26.8598155,-49.13802099999999,store
May Candy Store,"R. Lorenz Kretz, 146 - Badenfurt, Blumenau",-26.8734005,-49.1394986,store
Via Luce Store,"R. Werner Duwe, 548 - Badenfurt, Blumenau",-26.877619,-49.1408618,store
SVK Store | Loja de Fábrica,"R. Bahia, 4333 - Salto Weissbach, Blumenau",-26.8885625,-49.11998999999999,store
Pink Madame,"R. Alfredo Postai, 45 - Salto Norte, Blumenau",-26.8701229,-49.12179640000001,store
Profissional Baterias,"R. Bahia, 4332 - Salto Weissbach, Blumenau",-26.8881392,-49.1203178,store
Badenfurt Auto Peças,ROD. BR 470 KM 61 N°7208 - Badenfurt,-26.8817178,-49.1590099,store
Clube tabacaria vip,"BR-470 - Badenfurt, Blumenau",-26.882739,-49.1538451,store
Dondoka Moda Store,"R. Philipp Bauler, 865 - Testo Salto, Blumenau",-26.862281,-49.1368058,store
Cotton Brands,"BR-470, 6065 - Badenfurt, Blumenau",-26.8847635,-49.1479635,store
Revoada outfit,"R. Johann Sachse, 2415 - Salto Norte, Blumenau",-26.8652864,-49.1221611,store
Outlet Hedrons,"Km 57 3539 Rodovia BR-470 - Badenfurt, Blumenau",-26.8768234,-49.1244926,store
Ms7 auto peças,"R. Werner Duwe, 490 - Testo Salto, Blumenau",-26.8782972,-49.1409485,store
Thuy kids brinquedos,"R. Sido Reiter - Badenfurt, Blumenau",-26.8898054,-49.1413231,store
Puffs Blumenau,"R. Lorenz Kretz, 146 - Badenfurt, Blumenau",-26.8734726,-49.1394649,store
Água10 Piscinas,"R. Leopoldo Becker, 264 - Badenfurt, Blumenau",-26.8852786,-49.1349173,store
Novilho Grill,"R. Benjamin Constant, 1631 - Asilo, Blumenau",-26.9007148,-49.0977999,restaurant
Bar e Mercearia Schvabe,"R. João Rausch, 51 - Passo Manso, Blumenau",-26.8962406,-49.1536716,restaurant
Dog da leh,"R. Bahia, 7390 - Salto Weissbach, Blumenau",-26.8995379,-49.1424842,restaurant
Massari Pizzaria - Blumenau,"R. Bahia, 7160 - Salto Weissbach, Blumenau",-26.8991438,-49.140527,restaurant
Hotel e Bar Reinlein,"R. Dois de Setembro, 3482 - Itoupava Norte, Blumenau",-26.8828074,-49.0848192,hotel
Restaurante Zum Wasser Spiegel,"R. Dom Pedro II, 208 - Salto Weissbach, Blumenau",-26.8948704,-49.1347001,restaurant
Restaurante Booz,"Rua Engenheiro Paul Werner, 654 - Itoupava Seca, Blumenau",-26.8971481,-49.081326,restaurant
Casa Feijuca Restaurante e Pizzaria,"R. Antônio da Veiga, 390 - Victor Konder, Blumenau",-26.9073463,-49.079504,restaurant
Norden Blumenau,"R. Xavantina, 100 - Boa Vista, Blumenau",-26.8996124,-49.075637,restaurant
A arte do lanche,"R. Progresso, 35 - Encano, Indaial",-26.8922625,-49.1908716,restaurant
Pesque e Pague Loes Lazer,"R. Tifa Pausch, 1921 - fundos - Encano, Indaial",-26.8958411,-49.1706367,restaurant
Food Truck JK,"R. Kurt Jacobs, 178 - Salto Weissbach, Blumenau",-26.9003041,-49.1285111,restaurant
Deuzu Burger,"R. Gen. Osório, 3676 - Água Verde, Blumenau",-26.9072423,-49.1292074,restaurant
Restaurante Estação,"R. Bahia, 5074 - Salto Weissbach, Blumenau",-26.8928986,-49.125181,restaurant
CHA Mime Hotel,"Rodovia BR 470 • Km 8, nº 4125 - Badenfurt, Blumenau",-26.8776288,-49.1298876,hotel
Hotel Salto Do Norte,"R. Eng. Udo Deeke, 1839 - Salto Norte, Blumenau",-26.8750111,-49.1083205,hotel
Hotel SESC Blumenau,"R. Eng. Udo Deeke, 1330 - Salto Norte, Blumenau",-26.8729365,-49.103454,hotel
Hostel SIL CARDOSO,"R. Walter Schwantz, 173 - Salto Norte, Blumenau",-26.8764944,-49.1037833,hotel
Lele's Hamburgueria,"R. Aristídes Simão Santiago, 59 - Escola Agrícola, Blumenau",-26.8975214,-49.1069979,restaurant
Gebien's Diner,"R. Ricardo Koball, 221 - Escola Agrícola, Blumenau",-26.8958127,-49.0972537,restaurant
Restaurante Do Careca,"R. Tifa Pausch, 1425 - Encano Baixo, Indaial",-26.8915285,-49.1754048,restaurant
Hotel Dois Corações,"BR-470, 9671 - Badenfurt, Blumenau",-26.8750473,-49.1825361,hotel
Hotel Premier,"BR-470 - Badenfurt, Blumenau",-26.8750359,-49.1825558,hotel
Hotel Arthur,"BR-470, 9671 - Badenfurt, Blumenau",-26.8750473,-49.1825361,hotel
Pousada e hotel shekinah,"br 470 9671, BR-470, 9671 - Badenfurt, Indaial",-26.8750412,-49.18254659999999,hotel
The Family's Burger & Pizza,"R. Bahia, 5683 - Salto Weissbach, Blumenau",-26.8938238,-49.1300015,restaurant
T-Bone,"R. Gen. Osório, 2.269 - Água Verde, Blumenau",-26.9093217,-49.1260189,restaurant
TopDog,"R. Gen. Osório, 3102 - Água Verde, Blumenau",-26.908717,-49.1240749,restaurant
Veggie Foods • Restaurante Vegano,"R. Dr. Paulo Aldinger, 111 - Escola Agrícola, Blumenau",-26.8917209,-49.0972117,restaurant
Inn of the Russian Blumenau,"R. 30 de Agosto, 221 - Salto Norte, Blumenau",-26.8742661,-49.091099,hotel
MPS,"R. 25 de Agosto, 143 - Itoupava Norte, Blumenau",-26.8793211,-49.0849133,bank
BANCO DO BRASIL - ITOUPAVA NORTE - Agência 2869,"R. Dois de Setembro, 3648 - Itoupava Norte, Blumenau",-26.8813284,-49.085304,bank
Sicoob Multicredi - Fortaleza,"Sala 16 777, R. Francisco Vahldieck - Fortaleza, Blumenau",-26.8805912,-49.0686153,bank
Caixa Eletrônico - Banco do Brasil,"BR-470, 3.000 - Salto Norte, Blumenau",-26.8636011,-49.0911058,bank
Super Itoupavazinha,"R. Frederico Jensen, 2371 - Itoupavazinha, Blumenau",-26.8574048,-49.10833359999999,supermarket
Mini Mercado Pinsegher,"R. São Roque, 260 - Itoupava Norte, Blumenau",-26.8724949,-49.0870892,supermarket
Mini Mercado Ucrania,"R. Ucrânia, 10 - Itoupavazinha, Blumenau",-26.8523582,-49.1055881,supermarket
Supermercado Moura,"R. Eng. Udo Deeke, 1975 - Salto Norte, Blumenau",-26.8751338,-49.1096402,supermarket
Mercado Prochnow,"R. Ver. Romário da Conceição Badia, 271 - Itoupava Norte, Blumenau",-26.8731282,-49.0857863,supermarket
Mercado Sani,"R. São Valentim, 332 - Itoupava Norte, Blumenau",-26.8737929,-49.0825405,supermarket
CASA ALTERNATIVA,"R. Jardim Germânico, 840 - Itoupavazinha, Blumenau",-26.8530586,-49.0940279,supermarket
Minimercado Ams,"R. Eng. Udo Deeke, 1919 - Salto Norte, Blumenau",-26.8751942,-49.1091305,supermarket
Mercado Ferreira,"R. Adele Wruck, 700 - Itoupavazinha, Blumenau",-26.8500926,-49.1026653,supermarket
Mercado Popular,"R. 1ᵒ de Janeiro, 357 - Itoupava Norte, Blumenau",-26.8711936,-49.0863259,supermarket
MINI MERCADO ALPHA,"R. Guilherme Scharf, 781 - Fidélis, Blumenau",-26.8489888,-49.0803866,supermarket
Cooper Mafisa Supermarket,"BR-470, 3179 - Itoupavazinha, Blumenau",-26.862297,-49.0890388,supermarket
Supermercado do Zeca,"Rua Denis Diderot, 37 - Fidélis, Blumenau",-26.8498289,-49.0732078,supermarket
Mini Mercado Jv Schmitt,"R. Fritz Koegler, 1287 - Fortaleza, Blumenau",-26.8677328,-49.0709635,supermarket
Mini Mercado Da Luz,"R. Ver. Romário da Conceição Badia - Fortaleza, Blumenau",-26.8705108,-49.0799135,supermarket
Supermercado 3S Ltda,"R. Francisco Vahldieck, 49 - Itoupava Norte, Blumenau",-26.8833397,-49.0732998,supermarket
Mini Mercado JJB,"R. 5 de Outubro, 312 - Salto Norte, Blumenau",-26.8697387,-49.09011,supermarket
KR Store,"R. Frederico Jensen, 2120 - Itoupavazinha, Blumenau",-26.8575,-49.10598,store
F&F Store,"R. Frederico Jensen, 2440 - Itoupavazinha, Blumenau",-26.8566785,-49.1085559,store
Quiosque MiStore Brasil (Xiaomi),"BR-470, 3000 - Salto Norte, Blumenau",-26.8636948,-49.0926064,store
Labelly Store,"R. Alberto Kath, 70 - Itoupavazinha, Blumenau",-26.8596892,-49.0966715,store
Motorola,"BR-470, 3000 - quiosque 038 - Salto Norte, Blumenau",-26.8636948,-49.0926064,store
Conveniência Stop House,"R. Dois de Setembro, 4740 - Itoupava Norte, Blumenau",-26.8724354,-49.08982349999999,store
Overall Store,"R. Pomerode, 478 - Salto Norte, Blumenau",-26.8767869,-49.10188609999999,store
POLO WEAR,"BR-470, 3000 - Salto Norte, Blumenau",-26.863711,-49.0925236,store
Flash Car Store,"R. Bahia, 2009 - Salto, Blumenau",-26.8841417,-49.1013508,store
Mundo Infantil Ebook,"Rua 25 de Julho, 536 - Itoupava Norte, Blumenau",-26.8807043,-49.0807454,store
Gloriosa Cosméticos,"BR-470, 3000 - Salto Norte, Blumenau",-26.8633853,-49.0927468,store
Centro Médico Santa Catarina - HSI,"BR-470, 3000 - Salto Norte, Blumenau",-26.8636948,-49.0926064,hospital
Don'Ana Restaurante e Churrascaria,"R. Heinrich Hemmer, 1740 - Badenfurt, Blumenau",-26.8879684,-49.1292904,restaurant
Oktoberfest Camping indoor Blumenau,"R. São Leopoldo, 344 - Vila Nova, Blumenau",-26.9086914,-49.0871224,hotel
Jacaré Grill,"R. Benjamin Constant, 299 - Escola Agrícola, Blumenau",-26.8893281,-49.09720670000001,restaurant
Restaurant and Cafeteria Só Alegria,"R. Dois de Setembro, 2659 - Itoupava Norte, Blumenau",-26.8895659,-49.0821231,restaurant
BADECO LANCHES,"Badenfurt, Blumenau",-26.885367,-49.15805899999999,restaurant
Bar da waltraud,"BR-470, 6221 - Badenfurt, Blumenau",-26.8843694,-49.1498471,restaurant
Iraci Lanches,"BR-470, 6231 - Badenfurt, Blumenau",-26.8843377,-49.1500381,restaurant
Restaurante e Lanchonete Novo Sabor,"R. Bahia - Salto, Blumenau",-26.8862053,-49.1004478,restaurant
Motel Three Peixinhos,"R. Leopoldo Metzner, 349 - Salto Norte, Blumenau",-26.8713531,-49.1192436,hotel
Pousada Zur Alten Tradition,"Rua Dr. Pedro Zimmermann, 695 - Salto Norte, Blumenau",-26.8670009,-49.0880867,hotel
LUV Motel,"R. Ari Barroso, 388 - Salto Norte, Blumenau",-26.8683232,-49.0976402,hotel
Restaurante Donna Yolannda,"R. Bahia, 819 - Salto, Blumenau",-26.8878769,-49.0931225,restaurant
Metrópolis Fast Food,"R. 7 de Maio, 1600 - Itoupava Norte, Blumenau",-26.8875491,-49.0691532,restaurant
Betinho Lanches,"R. Bernardo Scheidemantel - Badenfurt, Blumenau",-26.8836972,-49.1463979,restaurant
Restaurante e Lanchonete Ipiranga,"BR 470 KM 59, 5290 - Badenfurt, Blumenau",-26.8821266,-49.14096610000001,restaurant
Sabor e Sabores - Restaurante e Lanchonete,"BR-470, 5133 - Badenfurt, Blumenau",-26.8822421,-49.1393113,restaurant
Fest Haus Restaurante LTDA,"R. Bernardino José de Oliveira, 569 - Badenfurt, Blumenau",-26.8831558,-49.13348269999999,restaurant
Koma Bem bar canto da pedra,"R. Dr. Fritz Müeller, 416 - Salto, Blumenau",-26.88472,-49.1050986,restaurant
Krauss Restaurant,"R. Dois de Setembro, 3233 - Itoupava Norte, Blumenau",-26.8850622,-49.084312,restaurant
Restaurante Zanoni,"R. Paris, 119 - Itoupava Norte, Blumenau",-26.885595,-49.082278,restaurant
Neanderthal Gastronomia,"R. Fernando de Souza e Silva, 1330 - Itoupava Norte, Blumenau",-26.8857367,-49.0700501,restaurant
Omni Financeira Blumenau,"Rua Dr. Pedro Zimmermann, 2371 - Itoupavazinha, Blumenau",-26.8554299,-49.0868693,bank
Caixa Eletrônico Caixa Econômica,"BR-470, 3000 - Salto Norte, Blumenau",-26.8634267,-49.0907068,bank
MAURER CRED,"R. Prof. Max Humpl, 2214 - Salto Norte, Blumenau",-26.8710715,-49.1160199,bank
Vecom,"R. Dois de Setembro, 3169 - Itoupava Norte, Blumenau",-26.8855234,-49.0839767,bank
CREDITA ONLINE,"Esquina com - R Henrique Bennertz, R. Dois de Setembro, 10 - sal 205 - Itoupava Norte, Blumenau",-26.8816282,-49.085264,bank
Vale Auto Shopping Blumenau,"Rua Dr. Pedro Zimmermann, 1001 - Salto Norte, Blumenau",-26.8636297,-49.085519,bank
Fortaleza da Água,"R. Francisco Vahldieck, 1250 - Fortaleza, Blumenau",-26.8760496,-49.0654555,supermarket
SUPER FERREIRA fortaleza,"R. Júlio Michel, 135 - Fortaleza, Blumenau",-26.8792257,-49.0661029,supermarket
Supermercado Econômico,"R. Francisco Vahldieck, 1733 - Fortaleza, Blumenau",-26.8730084,-49.06296769999999,supermarket
Hospedagem Lunardelli,"R. Lebon Régis, 52 - Ponta Aguda, Blumenau",-26.8995832,-49.0594305,hotel
Detomaso Administradora de Recursos Ltda,"R. Dr. Amadeu da Luz, 100 - Sala 301 - Centro, Blumenau",-26.9155863,-49.0703124,bank
Mega Securitizadora de Ativos Empresariais Sa,"R. Dr. Amadeu da Luz, 122 - Centro, Blumenau",-26.9156203,-49.0706188,bank
Senhor Pastel,"R. Silvano Cândido da Silva Sênior, 79 - Ponta Aguda, Blumenau",-26.8997861,-49.0464801,restaurant
Tempero Caseiro - Restaurante & Eventos,"R. Itajaí, 2621 - Vorstadt, Blumenau",-26.9074915,-49.0412531,restaurant
Restaurante Ferrari,"R. São Bernardo, 75 - Itoupava Norte, Blumenau",-26.8934893,-49.0674074,restaurant
Marci Salgados Caldo De Cana,"Badenfurt, Blumenau",-26.8806115,-49.16724319999999,restaurant
Assados Badenfurt,"Rodovia Br 470, 5340 (Sala 17) - Ao Lado do Trevo de, R. Pomerode - Badenfurt",-26.8822548,-49.1415493,restaurant
Salvador Cozinha | Do Brunch ao Happy Hour,"R. Hans Lorenz, 67 - Salto, Blumenau",-26.8853863,-49.0884691,restaurant
Bossa Store,"R. Curt Hering, 40 - Sala B - Centro, Blumenau",-26.9209536,-49.06408580000001,store
Hospital Santa Isabel -Cancerologia,"R. Floriano Peixoto, 300 - Centro, Blumenau",-26.923743,-49.0654824,hospital
Heliporto Hospital Santa Isabel,"Centro, Blumenau",-26.9238924,-49.0664082,hospital
Hostel da Maga,"1993, R. Silvano Cândido da Silva Sênior, CASA 1993, Blumenau",-26.8997326,-49.0350309,hotel
Mendes Hotel,"R. Itajaí, 1890 - Vorstadt, Blumenau",-26.9116783,-49.0467158,hotel
Pousada Casa Branca,"R. Alwin Schrader, 1359 - Centro, Blumenau",-26.9268503,-49.0462336,hotel
Unicred - Blumenau,"R. 7 de Setembro, 707 - Centro, Blumenau",-26.922906,-49.064231,bank
Toque e Tempero,"R. São Paulo, 652 - Centro, Blumenau",-26.9101382,-49.0725369,restaurant
Old School Street Food,"Rua Uruguai, 422 - Ponta Aguda, Blumenau",-26.9159364,-49.0654344,restaurant
Bulhmann Burguers,"Ponta Aguda, Blumenau",-26.9045182,-49.04596369999999,restaurant
Mini Kalzone - Shopping Park Europeu,"R. 7 de Maio, 1600 - Itoupava Norte, Blumenau",-26.8875543,-49.0691138,restaurant
Kings Food,"Av. Pres. Castelo Branco, 1000 - Centro, Blumenau",-26.9168957,-49.0676779,restaurant
Restaurante Rancho do Italiano,"R. Heinrich Hemmer, 390 - Badenfurt, Blumenau",-26.8799493,-49.12188159999999,restaurant
D'Colônia Cozinha Industrial,"Rua Elsbeth Feddersern, 700 - Salto Norte, Blumenau",-26.8806442,-49.1137951,restaurant
Bárbaros Street Food,"Rua Frei Estanislau Schaette, 1777 - Água Verde, Blumenau",-26.9105488,-49.1094555,restaurant
Lua Clara | Store - Fábrica,"R. Nossa Sra. Aparecida, 178 - Itoupava Norte, Blumenau",-26.8852007,-49.0759062,store
Hospedagem Costa Blumenau-SC,"R. Oscar Dickmann, 688 - Salto Norte, Blumenau",-26.8600172,-49.1285652,hotel
Pousada do Jacó,"R. Gustavo Frank, 305 - Salto Norte, Blumenau",-26.863791,-49.1090227,hotel
Hospedagem Blumenau,"R. Gustavo Frank, 305 - Salto Norte, Blumenau",-26.8637905,-49.1090227,hotel
Restaurante D' Gustare,"R. Francisco Vahldieck, 661 - Fortaleza, Blumenau",-26.8809812,-49.06909479999999,restaurant
Saborito Pastelaria e Restaurante,"R. Dr. Amadeu da Luz, 30 - Centro, Blumenau",-26.9151796,-49.0697533,restaurant
Culinária Baiana Ruhtra,"R. Vitório Alcântara - Ponta Aguda, Blumenau",-26.913139,-49.06206299999999,restaurant
Chef Waldemar Express,"R. Bolívia, 411 - Ponta Aguda, Blumenau",-26.9139321,-49.0625296,restaurant
Assados Na Brasa,"R. Itajaí, 2621 - Vorstadt, Blumenau",-26.9074768,-49.0412748,restaurant
Espetinho Sabor Nordestino,"R. Werner Duwe, 545 - Testo Salto, Blumenau",-26.8775976,-49.1418577,restaurant
BRUTUS LANCHES,"BR-470, 58 - Badenfurt, Blumenau",-26.8782063,-49.13331549999999,restaurant
SUPERMERCADO MELHOR PREÇO,"R. Frederico Jensen, 4645 - Itoupavazinha, Blumenau",-26.8539452,-49.1294631,supermarket
Supermercado Hanes,"R. Frederico Jensen, 3351 - Itoupavazinha, Blumenau",-26.8544157,-49.1175475,supermarket
SUPERMERCADO SUPER LIVRE,"R. Franz Volles, 2060 - Itoupava Central, Blumenau",-26.8337822,-49.1094551,supermarket
Mercado Irmãos JC Itoupavazinha,"R. Prof. Jacob Ineichen, 177 - Itoupavazinha, Blumenau",-26.8519817,-49.120043,supermarket
Supermercado Silva,"R. Johann Sachse, 1884 - Salto Norte, Blumenau",-26.8639194,-49.1272061,supermarket
Super Campestrini - Blumenau,"R. Johann Sachse, 2476 - Salto Norte, Blumenau",-26.865752,-49.1214753,supermarket
Supermercado Ruediger,"R. Franz Volles, 2294 - Itoupava Central, Blumenau",-26.8339929,-49.1112,supermarket
Point da Gula Itoupavazinha,"R. Frederico Jensen, 3450 - sala 03 - Itoupavazinha, Blumenau",-26.8541272,-49.1181724,supermarket
JENNIS STORE,"R. Christiano Karsten, nº 1122 - Testo Salto, Blumenau",-26.8527558,-49.1395517,store
Evidente Store,"R. Aleandro Juvenal Lenzi Neto - Itoupavazinha, Blumenau",-26.8499035,-49.1262207,store
Norte Bier Conveniência,"R. Frederico Jensen, 4478 - Itoupavazinha, Blumenau",-26.8532837,-49.1272167,store
Dina's Wear,"R. Fragata, 11 - Itoupavazinha, Blumenau",-26.8636697,-49.12760979999999,store
LOJA IMPERIO DAS MULTIMARCAS,"R. Oscár Holz, 43 - Itoupavazinha, Blumenau",-26.863577,-49.1263607,store
Berti Baterias e Acessórios Automotivos,"Berti baterias, R. Johann Sachse, 862 - 862 - Badenfurt, Blumenau",-26.8706021,-49.1318383,store
Loja Moça Bonita,"R. Philipp Bauler, 2060 - Sala 02 - Testo Salto, Blumenau",-26.8559227,-49.1327666,store
Cheiro de Amor Modas e Cosméticos,"R. Bruno Mette - Testo Salto, Blumenau",-26.8555287,-49.13947,store
Atacadão Eskimó Salto do Norte,"R. Johann Sachse, 2377 - Salto Norte, Blumenau",-26.8653234,-49.1225236,store
Technos Informática,"R. Johann Sachse, 2859 - Sala 1B - Salto Norte, Blumenau",-26.8671277,-49.11864809999999,store
Calhas Itoupava,"R. Guarapuava, 118 - Casa 04 - Testo Salto, Blumenau",-26.8570201,-49.1403319,store
LUCASS AUTOPEÇAS,"R. Antônio Inácio Kons, 662 - Testo Salto, Blumenau",-26.8463243,-49.1456503,store
Real Burguer,"R. Nicolau Reiter, 28 - Escola Agrícola, Blumenau",-26.9038875,-49.1040226,restaurant
Ana Maria Restaurante e Café Colonial,"R. São Paulo, 1277 - Victor Konder, Blumenau",-26.9057191,-49.0768341,restaurant
blumenau gastronômico,"Rua Engenheiro Paul Werner, 402 - Itoupava Seca, Blumenau",-26.899093,-49.0799597,restaurant
Restautante e Lanchonete Blu Shopping,"R. Dois de Setembro, 1395 - Itoupava Norte, Blumenau",-26.8975437,-49.0729398,restaurant
Sushi Garden,"Av. Martin Luther, 900 - Victor Konder, Blumenau",-26.9065676,-49.0738032,restaurant
Edu Corbani Esfihas,"R. Victor Konder, 66 - Victor Konder, Blumenau",-26.9092639,-49.0738396,restaurant
Subway,"Via Expressa, Rodovia Paul Fritz Kuehnrich, 1600 - Itoupava Norte, Blumenau",-26.8875717,-49.06883759999999,restaurant
Lab Food,"R. Alberto Felício Adriano - Fortaleza, Blumenau",-26.8779393,-49.0653606,restaurant
Nutry Labory,"Shopping Park Europeu - Rodovia Paul Fritz Kuehnrich - Itoupava Norte, Blumenau",-26.8867428,-49.0687387,restaurant
Hamburguero - Blumenau,"R. Itajaí, 2081 - Vorstadt, Blumenau",-26.9103052,-49.0448607,restaurant
Amazake Nippo Food,"R. Fernando de Souza e Silva, 1330 - Itoupava Norte, Blumenau",-26.8857367,-49.0700501,restaurant
Restaurante Souza,"BR-470, N°9671 - Badenfurt, Blumenau",-26.8750473,-49.1825361,restaurant
Costelaço Restaurante E Lanchonete,"BR-470 - Encano do Norte, Indaial",-26.8741541,-49.1837187,restaurant
Pesque e Pague Rancho Jader,"R. Bagé - Encano do Norte, Indaial",-26.8759321,-49.1825025,restaurant
Restaurante Ivonete,"R. Eng. Udo Deeke, 1919 - Salto Norte, Blumenau",-26.8751959,-49.10917389999999,restaurant
Hotel 10 Blumenau,"KM52, BR-470, 2653 - Itoupavazinha, Blumenau",-26.8616872,-49.0940957,hotel
Hotel Norte Blu,"R. Victor Voigt, 35 - Itoupavazinha, Blumenau",-26.8595938,-49.0910536,hotel
Chapa Grill Lanches e Porções,"R. Pomerode, 508 - Salto Norte, Blumenau",-26.8767517,-49.10212600000001,restaurant
Amy Motel Blumenau,"Rodovia BR-470 8065, Blumenau",-26.8625744,-49.0446956,hotel
Morada da Vó Gati,"R. Carlos Gardel, 180 - Tribess, Blumenau",-26.865342,-49.0477433,hotel
Rede TOP - Tribess,"Rua Hermann Tribess, 1026 - Tribess, Blumenau",-26.8753324,-49.0547722,supermarket
Mini Mercado Kuller,"Rua Hermann Tribess, 1 - Fortaleza, Blumenau",-26.8802081,-49.0615667,supermarket
Rede TOP - Fortaleza,"R. Francisco Vahldieck, 1881 - Fortaleza, Blumenau",-26.872219,-49.0619621,supermarket
Mercado Reis,"Rua Henrique Reif, 1591 - Nova Esperança, Blumenau",-26.8874882,-49.0486703,supermarket
Vale Gourmet Restaurante,"Rodovia Paul Fritz Kuehnrich, 955 - Itoupava Norte, Blumenau",-26.8919642,-49.0718069,restaurant
Peppos Blumenau,"R. 7 de Maio, 1600 - Itoupava Norte, Blumenau",-26.8872341,-49.0685515,restaurant
The Family's Burger - Fortaleza,"R. Fernando de Souza e Silva, 150 - Itoupava Norte, Blumenau",-26.8833332,-49.0703048,restaurant
Bahia Acarajé,"R. Francisco Vahldieck, 1254 - Fortaleza, Blumenau",-26.8763536,-49.0656502,restaurant
Gaijin Sushi,"R. 7 de Maio, 1600 - Itoupava Norte, Blumenau",-26.8875578,-49.06901509999999,restaurant
Kiosque Divisa,"Anexo Recanto Divisa fundos - R. Nicolau Link - Badenfurt, Blumenau",-26.8726348,-49.1790907,restaurant
Corner Fish Pay Currency,"R. Nicolau Link, 200 - Badenfurt, Blumenau",-26.8735261,-49.1795292,restaurant
Vallee Restaurante e churrascaria,"R. Werner Duwe, 1088 - Badenfurt, Blumenau",-26.8730384,-49.1408413,restaurant
Restaurante e Cozinha Industrial Gallaffi,"R. Eng. Udo Deeke, 2217 - Salto Norte, Blumenau",-26.8745428,-49.112249,restaurant
restaurante grand sabor,"R. Eng. Udo Deeke, 2217 - Salto Norte, Blumenau",-26.8745556,-49.11219810000001,restaurant
Herbalife Shake Blumenau,"R. Paul Lenz, 16 - sala 2 - Escola Agrícola, Blumenau",-26.8948275,-49.09917739999999,restaurant
Badok Grill,"R. Alm. Barroso, 1450 - Vila Nova, Blumenau",-26.9041627,-49.0924223,restaurant
Chef Lú Raposo,"R. Alm. Barroso, 1060 - Vila Nova, Blumenau",-26.9023095,-49.0892709,restaurant
Menu Marmitas,"R. Dois de Setembro, n⁰ 4241 - Itoupava Norte, Blumenau",-26.8763101,-49.087506,restaurant
Restaurante & Buffet Aenzo,"R. Benjamin Constant, 743 - Asilo, Blumenau",-26.8932214,-49.09826109999999,restaurant
Gula's Natural Food Vila Nova,"Rua Theodoro Holtrup, 112 - Vila Nova, Blumenau",-26.9086583,-49.0829416,restaurant
Popa's Cozinha Industrial,"R. Pedro André Reinerte, 163-253 - Tribess, Blumenau",-26.8757209,-49.0527349,restaurant
Maria Clara Restaurante e Eventos,"R. Itajaí, 3434 - Vorstadt, Blumenau",-26.90786,-49.0337026,restaurant
Segredos Caseiro,Ases Rodoviaria de,-26.8953406,-49.07074739999999,restaurant
Hotel Danubio,"Victor Konder, Blumenau",-26.9121817,-49.0713879,hotel
Jm Pastelaria,"R. Johann Sachse, 404 - Badenfurt, Blumenau",-26.8735078,-49.1298311,restaurant
Blu Grill - Carnes Assadas,"R. Benjamin Constant, 1130 - Escola Agrícola, Blumenau",-26.896639,-49.099388,restaurant
Blu Dog Restaurante e Lanchonete,"R. Benjamin Constant, 743 - Asilo, Blumenau",-26.893228,-49.0982516,restaurant
Restaurante Bom Gosto,"R. 1ᵒ de Janeiro, 51 - Itoupava Norte, Blumenau",-26.8730446,-49.0884857,restaurant
BULL VEGAS 国分町店,"R. I-1988, 2-1 - Salto, Blumenau",-26.8922777,-49.0882328,restaurant
Pousada e Hostel São Paulo,"R. São Paulo, 688 - Victor Konder, Blumenau",-26.9098009,-49.0726533,hotel
Restaurante Bon Vivant,"R. São Paulo, 3191 - Itoupava Seca, Blumenau",-26.8920302,-49.0846053,restaurant
Fenks Clothing,"Rua Gottlieb Reif - Escola Agrícola, Blumenau",-26.8905266,-49.0993937,store
Exclusiva Livraria Cristã,"R. Theodoro Lueders, 136 - Escola Agrícola, Blumenau",-26.8914014,-49.1057911,store
Familia Kienolt,"R. Dionísio Cerqueira, 102 - Escola Agrícola, Blumenau",-26.8890686,-49.1017941,store
Imaginartte Presentes e Personalizados,"R. Eng. Weitnauer, 61 - Asilo, Blumenau",-26.8903017,-49.10854579999999,store
Batteries and Accessories Tambosi,"R. Eng. Udo Deeke, 1975 - Salto Norte, Blumenau",-26.8751213,-49.1099875,store
Gika's Bar e Churrascaria,"R. São Paulo, 1528 - Itoupava Seca, Blumenau",-26.9038281,-49.0773119,restaurant
MANOS CRIOLLAS Culinaria Peruana,"R. Santa Marta, 49 - Itoupava Norte, Blumenau",-26.8891589,-49.0727176,restaurant
Burger House,"R. 4 de Fevereiro, 971 - Itoupava Norte, Blumenau",-26.8834836,-49.0755952,restaurant
Assadao da Simone,"R. Francisco Vahldieck, 1163 - Fortaleza, Blumenau",-26.8834028,-49.0736873,restaurant
Delícia do vale Europeu,"Rodovia Paul Fritz Kuehnrich, 1600 - Itoupava Norte, Blumenau",-26.8875149,-49.06869349999999,restaurant
Yes chef gourmet,"R. Benjamin Constant, 1345 - Casa - Escola Agrícola, Blumenau",-26.898377,-49.0984095,restaurant
Blumenau shopping das baterias e volantes,"BR-470, 2559 - Salto Norte, Blumenau",-26.8746107,-49.1153241,store
Patinho Feio Pet Shop Esc. Agrícola,"R. Benjamin Constant, 471 - Asilo, Blumenau",-26.8909015,-49.0978109,store
Assadaovene,"89053188 - Itoupava Norte, Blumenau",-26.8718542,-49.0609417,restaurant
Marmitex e Lanchonete Big Sisters,"R. Werner Duwe, 1897 - Testo Salto, Blumenau",-26.8671129,-49.1440491,restaurant
Portilho Lanches,"R. Johann Sachse - Badenfurt, Blumenau",-26.869185,-49.1167271,restaurant
Tennesse Burger's,"R. 4 de Fevereiro, 971 - Itoupava Norte, Blumenau",-26.8834836,-49.0755952,restaurant
Wine n' Massas,"R. 4 de Fevereiro, 999 - Itoupava Norte, Blumenau",-26.8834839,-49.0750359,restaurant
Lanchonete Jamile,"R. Sd. Mario Luís Bertoline, 21 - Itoupava Norte, Blumenau",-26.8832722,-49.0735937,restaurant
Lampião e Maria Bonita,"R. Carlos Rischbieter, 819 - Boa Vista, Blumenau",-26.903705,-49.0688788,restaurant
Taurus Brazilian Grill,"Rua Hermann Tribess, 1772 - Tribess, Blumenau",-26.8717038,-49.0497764,restaurant
Nuss Essen Park - Food Park Blumenau,"R. Werner Duwe, 1840 - Testo Salto, Blumenau",-26.866617,-49.1439667,restaurant
Xis Gaudério,"Rua Otília Bennertz, 134 - Testo Salto, Blumenau",-26.8676244,-49.1455472,restaurant
Brava marmitaria,"Próximo mercado Silva - R. Johann Sachse, 1421 - Salto Norte, Blumenau",-26.8671369,-49.1298632,restaurant
Restaurante sabor do vale,"R. Eng. Udo Deeke, 1919 - Salto Norte, Blumenau",-26.8751959,-49.10917389999999,restaurant
Pastelaria e Restaurante Valentina,"R. Prof. Max Humpl, 1130 - Salto Norte, Blumenau",-26.8661958,-49.1097055,restaurant
Comendo Com os Olhos,"R. Prof. Max Humpl - Salto Norte, Blumenau",-26.8665913,-49.1089634,restaurant
Hotel Zandoná,"Rua Dr. Pedro Zimmermann, 2600 - Itoupavazinha, Blumenau",-26.8514889,-49.0871892,hotel
Restaurante Flamboyant,"R. Ver. Romário da Conceição Badia, 49 - Itoupava Norte, Blumenau",-26.8743982,-49.0872987,restaurant
Lanchonete Café e Cia,"R. Dois de Setembro, 2660 - Itoupava Norte, Blumenau",-26.8893894,-49.0818939,restaurant
Hot Dog Fortaleza,"R. Francisco Vahldieck, 1733 - Fortaleza, Blumenau",-26.8730048,-49.0629278,restaurant
Assados Badenfurt Salto do Norte,"R. Johann Sachse, 2282 - Salto Norte, Blumenau",-26.8649692,-49.1243324,restaurant
Pizza Chef Momento,"R. Carl Müler - Badenfurt, Blumenau",-26.8837932,-49.1244689,restaurant
DiMila Restaurante,"R. Eng. Udo Deeke, 905 - Salto Norte, Blumenau",-26.8728488,-49.0994952,restaurant
Camarão Express,"BR-470, 3000 - L035 - Salto Norte, Blumenau",-26.8640649,-49.092776,restaurant
Madruga Restaurante,"Rua 25 de Julho, 133 - Itoupava Norte, Blumenau",-26.8829462,-49.0835516,restaurant
Churrascaria na Brasa,"R. Dois de Setembro, 218 - Itoupava Norte, Blumenau",-26.8931198,-49.0625559,restaurant
Sabores da Claudete,"Clube de caça e tiro - R. Treze de Maio, 219 - Itoupava Norte, Blumenau",-26.8808829,-49.0836094,restaurant
Restaurante e Lanchonete Tok Caipira,"De frente com material de construção MP - R. Júlio Michel, 2295 - Fortaleza, Blumenau",-26.8815942,-49.0464591,restaurant
CENTRAL Assadão,"Rua Hermann Tribess, 1190 - Tribess, Blumenau",-26.8745686,-49.0533681,restaurant
RESTAURANTE LANCHONETE BADENFURT,"R. Werner Duwe, 145 - Badenfurt, Blumenau",-26.8816245,-49.1419319,restaurant
Tino Lanches,"R. Werner Duwe, 397 - Badenfurt, Blumenau",-26.8790123,-49.1415566,restaurant
Restaurante sapore,"Badenfurt, Blumenau",-26.8821375,-49.1410191,restaurant
Santorann Gourmet,"José, R. Bernardino José de Oliveira, 771 - Badenfurt, Blumenau",-26.8850373,-49.1318749,restaurant
Lanchonete do Buiu,"R. Johann Sachse, 1948 - Salto Norte, Blumenau",-26.8640252,-49.1266577,restaurant
